{
"type": "FeatureCollection",
"crs": { "type": "name", "properties": { "name": "urn:ogc:def:crs:OGC:1.3:CRS84" } },
"features": [
{ "type": "Feature", "properties": { "Botanical": "Acanthus ebracteatus", "Lower": null, "Family": "Acanthaceae", "Country": null, "State": "Andaman & Nicobar", "District": "S. Andaman", "Collection": "S-04-111", "Date": "18.07.2004", "latitude": "11.831168", "longitude": "92.65864", "addrtype": "place", "addrlocat": "county", "rainfall": null, "FAOSOIL": null, "DOMSOIL": null }, "geometry": { "type": "Point", "coordinates": [ 93.0000194, 10.0001051 ] } },
{ "type": "Feature", "properties": { "Botanical": "Acanthus ilicifolius", "Lower": null, "Family": "Acanthaceae", "Country": null, "State": "Andhra Pradesh", "District": "East Godavari", "Collection": "AUU-722", "Date": "14.08.2002", "latitude": "17.32125", "longitude": "82.040714", "addrtype": "place", "addrlocat": "county", "rainfall": "", "FAOSOIL": "Ne58-1bc", "DOMSOIL": "Ne" }, "geometry": { "type": "Point", "coordinates": [ 81.833333, 17.833333 ] } },
{ "type": "Feature", "properties": { "Botanical": "Acanthus leucostachyus", "Lower": null, "Family": "Acanthaceae", "Country": null, "State": "Assam", "District": "Cachar", "Collection": "GD-101", "Date": "04.03.1999", "latitude": "24.782125", "longitude": "92.85771", "addrtype": "boundary", "addrlocat": "administrative", "rainfall": "2876.557143", "FAOSOIL": "Ao76-2\/3c", "DOMSOIL": "Ao" }, "geometry": { "type": "Point", "coordinates": [ 92.881511187499996, 24.7569908 ] } },
{ "type": "Feature", "properties": { "Botanical": "Adhatoda vasica", "Lower": null, "Family": "Acanthaceae", "Country": null, "State": "Delhi", "District": "North Delhi", "Collection": "ABR-7\/2005", "Date": "02.04.2005", "latitude": "28.788604", "longitude": "77.14116", "addrtype": "place", "addrlocat": "city", "rainfall": null, "FAOSOIL": null, "DOMSOIL": null }, "geometry": { "type": "Point", "coordinates": [ 77.2159562, 28.6138967 ] } },
{ "type": "Feature", "properties": { "Botanical": "Andrographis alata", "Lower": null, "Family": "Acanthaceae", "Country": null, "State": "Karnataka", "District": "Bangalore", "Collection": "KFP 6443", "Date": "15.2.1979", "latitude": "12.971599", "longitude": "77.594563", "addrtype": "place", "addrlocat": "city", "rainfall": "", "FAOSOIL": "Lc75-2b", "DOMSOIL": "Lc" }, "geometry": { "type": "Point", "coordinates": [ 77.5912997, 12.9791198 ] } },
{ "type": "Feature", "properties": { "Botanical": "Andrographis paniculata", "Lower": null, "Family": "Acanthaceae", "Country": null, "State": "Andhra Pradesh", "District": "Hyderabad", "Collection": null, "Date": "April 2007", "latitude": "17.385044", "longitude": "78.486671", "addrtype": "amenity", "addrlocat": "bank", "rainfall": "931.0571429", "FAOSOIL": "Lc76-2b", "DOMSOIL": "Lc" }, "geometry": { "type": "Point", "coordinates": [ 79.872446416838997, 16.89528065 ] } },
{ "type": "Feature", "properties": { "Botanical": "Andrographis lineata", "Lower": null, "Family": "Acanthaceae", "Country": null, "State": "Karnataka", "District": "Chikmagalur", "Collection": "KFP 9615", "Date": "06.10.1979", "latitude": "13.315258", "longitude": "75.775402", "addrtype": "place", "addrlocat": "county", "rainfall": "2264.3", "FAOSOIL": "Ap21-2b", "DOMSOIL": "Ap" }, "geometry": { "type": "Point", "coordinates": [ 75.5, 13.5 ] } },
{ "type": "Feature", "properties": { "Botanical": "Andrographis ovata", "Lower": null, "Family": "Acanthaceae", "Country": null, "State": "Tamil Nadu", "District": "Namakkal", "Collection": "UV\/02-48", "Date": "21.12.2002", "latitude": "11.219439", "longitude": "78.167724", "addrtype": "railway", "addrlocat": "station", "rainfall": "", "FAOSOIL": "Lc75-2b", "DOMSOIL": "Lc" }, "geometry": { "type": "Point", "coordinates": [ 78.1791637, 11.2260222 ] } },
{ "type": "Feature", "properties": { "Botanical": "Andrographis paniculata", "Lower": null, "Family": "Acanthaceae", "Country": null, "State": "Andhra Pradesh", "District": "Hyderabad", "Collection": "Abbas\/Sivraj-2007", "Date": "15.08.2007", "latitude": "17.385044", "longitude": "78.486671", "addrtype": "amenity", "addrlocat": "bank", "rainfall": "931.0571429", "FAOSOIL": "Lc76-2b", "DOMSOIL": "Lc" }, "geometry": { "type": "Point", "coordinates": [ 79.872446416838997, 16.89528065 ] } },
{ "type": "Feature", "properties": { "Botanical": "Andrographis paniculata", "Lower": null, "Family": "Acanthaceae", "Country": null, "State": "Delhi", "District": "Punjabi Bagh", "Collection": "AP\/RG\/Students-2007", "Date": "25.10.2007", "latitude": "28.673751", "longitude": "77.127338", "addrtype": "boundary", "addrlocat": "administrative", "rainfall": null, "FAOSOIL": null, "DOMSOIL": null }, "geometry": { "type": "Point", "coordinates": [ 77.1324614, 28.668945 ] } },
{ "type": "Feature", "properties": { "Botanical": "Asteracantha longifolia", "Lower": null, "Family": "Acanthaceae", "Country": null, "State": "Maharashtra", "District": "Ratnagiri", "Collection": "BBJ-97", "Date": "07.10.2000", "latitude": "16.990215", "longitude": "73.312023", "addrtype": "boundary", "addrlocat": "administrative", "rainfall": "", "FAOSOIL": "Nd49-2bc", "DOMSOIL": "Nd" }, "geometry": { "type": "Point", "coordinates": [ 73.276178369930307, 17.27448005 ] } },
{ "type": "Feature", "properties": { "Botanical": "Asystasia chelonoides", "Lower": null, "Family": "Acanthaceae", "Country": null, "State": "Karnataka", "District": "Kodagu", "Collection": "KFP 2275", "Date": "22.08.1978", "latitude": "12.337494", "longitude": "75.806908", "addrtype": "boundary", "addrlocat": "administrative", "rainfall": "2817.842857", "FAOSOIL": "Ap21-2b", "DOMSOIL": "Ap" }, "geometry": { "type": "Point", "coordinates": [ 75.667723595085207, 12.38117345 ] } },
{ "type": "Feature", "properties": { "Botanical": "Asystasia dalzelliana", "Lower": null, "Family": "Acanthaceae", "Country": null, "State": "Karnataka", "District": "Chikmagalur", "Collection": "KFP 8576", "Date": "22.07.1979", "latitude": "13.315258", "longitude": "75.775402", "addrtype": "place", "addrlocat": "county", "rainfall": "2264.3", "FAOSOIL": "Ap21-2b", "DOMSOIL": "Ap" }, "geometry": { "type": "Point", "coordinates": [ 75.5, 13.5 ] } },
{ "type": "Feature", "properties": { "Botanical": "Asystasia gangetica", "Lower": null, "Family": "Acanthaceae", "Country": null, "State": "Karnataka", "District": "Mandya", "Collection": "KFP 10220", "Date": "07.11.1979", "latitude": "12.522157", "longitude": "76.900919", "addrtype": "place", "addrlocat": "town", "rainfall": "792.4571429", "FAOSOIL": "Lc75-2b", "DOMSOIL": "Lc" }, "geometry": { "type": "Point", "coordinates": [ 76.8937392, 12.5217836 ] } },
{ "type": "Feature", "properties": { "Botanical": "Barleria acuminata", "Lower": null, "Family": "Acanthaceae", "Country": null, "State": "Karnataka", "District": "Mysore", "Collection": "KFP 6371", "Date": "06.04.1979", "latitude": "31.104815", "longitude": "77.173403", "addrtype": "place", "addrlocat": "city", "rainfall": "831.8571429", "FAOSOIL": "Lc75-2b", "DOMSOIL": "Lc" }, "geometry": { "type": "Point", "coordinates": [ 76.6553609, 12.3051828 ] } },
{ "type": "Feature", "properties": { "Botanical": "Barleria cristata", "Lower": null, "Family": "Acanthaceae", "Country": null, "State": "Karnataka", "District": "Shimoga", "Collection": "RJGO-40", "Date": "01.12.2007", "latitude": "28.704059", "longitude": "77.10249", "addrtype": "place", "addrlocat": "city", "rainfall": "2146.7", "FAOSOIL": "Ap21-2b", "DOMSOIL": "Ap" }, "geometry": { "type": "Point", "coordinates": [ 75.569737, 13.9311723 ] } },
{ "type": "Feature", "properties": { "Botanical": "Barleria cristata", "Lower": null, "Family": "Acanthaceae", "Country": null, "State": "Himachal Pradesh", "District": "Shimla", "Collection": "SHM\/07\/P\/88", "Date": "08.08.2006", "latitude": "29.380304", "longitude": "79.463566", "addrtype": "boundary", "addrlocat": "administrative", "rainfall": "", "FAOSOIL": "Be78-2c", "DOMSOIL": "Be" }, "geometry": { "type": "Point", "coordinates": [ 77.700625148440295, 31.24445 ] } },
{ "type": "Feature", "properties": { "Botanical": "Barleria cristata", "Lower": "var. dichotoma Prain", "Family": "Acanthaceae", "Country": null, "State": "Delhi", "District": "Delhi", "Collection": null, "Date": "07.12.1987", "latitude": "13.315258", "longitude": "75.775402", "addrtype": "place", "addrlocat": "city", "rainfall": null, "FAOSOIL": null, "DOMSOIL": null }, "geometry": { "type": "Point", "coordinates": [ 77.2219388, 28.6517178 ] } },
{ "type": "Feature", "properties": { "Botanical": "Barleria dichotoma", "Lower": null, "Family": "Acanthaceae", "Country": null, "State": "Uttarakhand", "District": "Nainital", "Collection": "GS-274", "Date": "11.11.1995", "latitude": "28.788604", "longitude": "77.14116", "addrtype": "place", "addrlocat": "town", "rainfall": "", "FAOSOIL": "Bd29-3c", "DOMSOIL": "Bd" }, "geometry": { "type": "Point", "coordinates": [ 79.4555358, 29.3920381 ] } },
{ "type": "Feature", "properties": { "Botanical": "Barleria involucrata", "Lower": "var. elata (Dalzell) C.B.Clarke", "Family": "Acanthaceae", "Country": null, "State": "Karnataka", "District": "Chikmagalur", "Collection": "KFP 4640", "Date": "18.11.1978", "latitude": "31.104815", "longitude": "77.173403", "addrtype": "place", "addrlocat": "county", "rainfall": "2264.3", "FAOSOIL": "Ap21-2b", "DOMSOIL": "Ap" }, "geometry": { "type": "Point", "coordinates": [ 75.5, 13.5 ] } },
{ "type": "Feature", "properties": { "Botanical": "Barleria lupulina", "Lower": null, "Family": "Acanthaceae", "Country": null, "State": "Delhi", "District": "North Delhi", "Collection": "ABR-4\/2005", "Date": "02.04.2005", "latitude": "12.971599", "longitude": "77.594563", "addrtype": "place", "addrlocat": "city", "rainfall": null, "FAOSOIL": null, "DOMSOIL": null }, "geometry": { "type": "Point", "coordinates": [ 77.2159562, 28.6138967 ] } },
{ "type": "Feature", "properties": { "Botanical": "Barleria lupulina", "Lower": null, "Family": "Acanthaceae", "Country": null, "State": "Himachal Pradesh", "District": "Shimla", "Collection": null, "Date": "06.07.2005", "latitude": "29.380304", "longitude": "79.463566", "addrtype": "boundary", "addrlocat": "administrative", "rainfall": "", "FAOSOIL": "Be78-2c", "DOMSOIL": "Be" }, "geometry": { "type": "Point", "coordinates": [ 77.700625148440295, 31.24445 ] } },
{ "type": "Feature", "properties": { "Botanical": "Barleria prattensis", "Lower": null, "Family": "Acanthaceae", "Country": null, "State": "Karnataka", "District": "Bangalore", "Collection": "KFP 4596", "Date": "02.12.1978", "latitude": "20.462521", "longitude": "85.88299", "addrtype": "place", "addrlocat": "city", "rainfall": "", "FAOSOIL": "Lc75-2b", "DOMSOIL": "Lc" }, "geometry": { "type": "Point", "coordinates": [ 77.5912997, 12.9791198 ] } },
{ "type": "Feature", "properties": { "Botanical": "Barleria strigosa", "Lower": null, "Family": "Acanthaceae", "Country": null, "State": "Uttarakhand", "District": "Nainital", "Collection": null, "Date": "33055", "latitude": "13.315258", "longitude": "75.775402", "addrtype": "place", "addrlocat": "town", "rainfall": "", "FAOSOIL": "Bd29-3c", "DOMSOIL": "Bd" }, "geometry": { "type": "Point", "coordinates": [ 79.4555358, 29.3920381 ] } },
{ "type": "Feature", "properties": { "Botanical": "Barleria strigosa", "Lower": null, "Family": "Acanthaceae", "Country": null, "State": "Orissa", "District": "Cuttack", "Collection": "DP\/RM-6147", "Date": "20.12.2000", "latitude": "12.522157", "longitude": "76.900919", "addrtype": "boundary", "addrlocat": "administrative", "rainfall": "1762.314286", "FAOSOIL": "Lf92-1a", "DOMSOIL": "Lf" }, "geometry": { "type": "Point", "coordinates": [ 85.461195977126494, 20.3640012 ] } },
{ "type": "Feature", "properties": { "Botanical": "Barleria tomentosa", "Lower": null, "Family": "Acanthaceae", "Country": null, "State": "Karnataka", "District": "Bangalore", "Collection": "KFP 2828", "Date": "23.09.1978", "latitude": "31.957851", "longitude": "77.10946", "addrtype": "place", "addrlocat": "city", "rainfall": "", "FAOSOIL": "Lc75-2b", "DOMSOIL": "Lc" }, "geometry": { "type": "Point", "coordinates": [ 77.5912997, 12.9791198 ] } },
{ "type": "Feature", "properties": { "Botanical": "Blepharis asperrima", "Lower": null, "Family": "Acanthaceae", "Country": null, "State": "Karnataka", "District": "Chikmagalur", "Collection": "KFP 4147", "Date": "13.11.1978", "latitude": "12.337494", "longitude": "75.806908", "addrtype": "place", "addrlocat": "county", "rainfall": "2264.3", "FAOSOIL": "Ap21-2b", "DOMSOIL": "Ap" }, "geometry": { "type": "Point", "coordinates": [ 75.5, 13.5 ] } },
{ "type": "Feature", "properties": { "Botanical": "Blepharis maderaspatensis", "Lower": null, "Family": "Acanthaceae", "Country": null, "State": "Karnataka", "District": "Mandya", "Collection": "KFP 4578", "Date": "25.11.1978", "latitude": "30.904486", "longitude": "77.096736", "addrtype": "place", "addrlocat": "town", "rainfall": "792.4571429", "FAOSOIL": "Lc75-2b", "DOMSOIL": "Lc" }, "geometry": { "type": "Point", "coordinates": [ 76.8937392, 12.5217836 ] } },
{ "type": "Feature", "properties": { "Botanical": "Blepharis molluginifolia", "Lower": null, "Family": "Acanthaceae", "Country": null, "State": "Himachal Pradesh", "District": "Kullu", "Collection": null, "Date": null, "latitude": "31.104815", "longitude": "77.173403", "addrtype": "boundary", "addrlocat": "administrative", "rainfall": "", "FAOSOIL": "Be78-2c", "DOMSOIL": "Be" }, "geometry": { "type": "Point", "coordinates": [ 77.435766575380995, 31.88068535 ] } },
{ "type": "Feature", "properties": { "Botanical": "Bremekampia neilgherrensis", "Lower": null, "Family": "Acanthaceae", "Country": null, "State": "Karnataka", "District": "Kodagu", "Collection": "KFP 5546", "Date": "28.12.1978", "latitude": "16.212003", "longitude": "77.343928", "addrtype": "boundary", "addrlocat": "administrative", "rainfall": "2817.842857", "FAOSOIL": "Ap21-2b", "DOMSOIL": "Ap" }, "geometry": { "type": "Point", "coordinates": [ 75.667723595085207, 12.38117345 ] } },
{ "type": "Feature", "properties": { "Botanical": "Crossandra infundibuliformis", "Lower": null, "Family": "Acanthaceae", "Country": null, "State": "Karnataka", "District": "Uttara Kannada", "Collection": "RJGSO-28", "Date": "29.11.2007", "latitude": "12.522157", "longitude": "76.900919", "addrtype": "boundary", "addrlocat": "administrative", "rainfall": "", "FAOSOIL": "Ap21-2b", "DOMSOIL": "Ap" }, "geometry": { "type": "Point", "coordinates": [ 74.472916304597902, 14.6726379 ] } },
{ "type": "Feature", "properties": { "Botanical": "Daedalacanthus nervosus", "Lower": null, "Family": "Acanthaceae", "Country": null, "State": "Himachal Pradesh", "District": "Solan", "Collection": "SHM\/07\/19", "Date": "Aug. 2002", "latitude": "13.92993", "longitude": "75.568101", "addrtype": "boundary", "addrlocat": "administrative", "rainfall": "1094.814286", "FAOSOIL": "Lo44-1b", "DOMSOIL": "Lo" }, "geometry": { "type": "Point", "coordinates": [ 76.943113912017097, 31.0644844 ] } },
{ "type": "Feature", "properties": { "Botanical": "Dicliptera bupleuroides", "Lower": null, "Family": "Acanthaceae", "Country": null, "State": "Himachal Pradesh", "District": "Shimla", "Collection": "APRG-17\/2005", "Date": "15.10.2005", "latitude": "16.990215", "longitude": "73.312023", "addrtype": "boundary", "addrlocat": "administrative", "rainfall": "", "FAOSOIL": "Be78-2c", "DOMSOIL": "Be" }, "geometry": { "type": "Point", "coordinates": [ 77.700625148440295, 31.24445 ] } },
{ "type": "Feature", "properties": { "Botanical": "Diotacanthus grandis", "Lower": null, "Family": "Acanthaceae", "Country": null, "State": "Karnataka", "District": "Uttara Kannada", "Collection": "KFP 6073", "Date": "15.2.1979", "latitude": "13.315258", "longitude": "75.775402", "addrtype": "boundary", "addrlocat": "administrative", "rainfall": "", "FAOSOIL": "Ap21-2b", "DOMSOIL": "Ap" }, "geometry": { "type": "Point", "coordinates": [ 74.472916304597902, 14.6726379 ] } },
{ "type": "Feature", "properties": { "Botanical": "Dipteracanthus patulus", "Lower": null, "Family": "Acanthaceae", "Country": null, "State": "Karnataka", "District": "Raichur", "Collection": "KFP 4384", "Date": "16.11.1978", "latitude": "13.92993", "longitude": "75.568101", "addrtype": "place", "addrlocat": "county", "rainfall": "708.7714286", "FAOSOIL": "Vp42-3a", "DOMSOIL": "Vp" }, "geometry": { "type": "Point", "coordinates": [ 77.166667, 16.083333 ] } },
{ "type": "Feature", "properties": { "Botanical": "Dyscoriste littoralis", "Lower": null, "Family": "Acanthaceae", "Country": null, "State": "Karnataka", "District": "Mandya", "Collection": "KFP 384", "Date": "04.03.1978", "latitude": "15.139393", "longitude": "76.921443", "addrtype": "place", "addrlocat": "town", "rainfall": "792.4571429", "FAOSOIL": "Lc75-2b", "DOMSOIL": "Lc" }, "geometry": { "type": "Point", "coordinates": [ 76.8937392, 12.5217836 ] } },
{ "type": "Feature", "properties": { "Botanical": "Dyscoriste vagans", "Lower": null, "Family": "Acanthaceae", "Country": null, "State": "Karnataka", "District": "Mandya", "Collection": "KFP 5020", "Date": "18.12.1978", "latitude": "15.849695", "longitude": "74.497674", "addrtype": "place", "addrlocat": "town", "rainfall": "792.4571429", "FAOSOIL": "Lc75-2b", "DOMSOIL": "Lc" }, "geometry": { "type": "Point", "coordinates": [ 76.8937392, 12.5217836 ] } },
{ "type": "Feature", "properties": { "Botanical": "Ecbolium linneanum", "Lower": "var. laetevirens (Vahl) C.B.Clarke", "Family": "Acanthaceae", "Country": null, "State": "Karnataka", "District": "Shimoga", "Collection": "KFP 5380", "Date": "14.12.1978", "latitude": "21.538314", "longitude": "84.728944", "addrtype": "place", "addrlocat": "city", "rainfall": "2146.7", "FAOSOIL": "Ap21-2b", "DOMSOIL": "Ap" }, "geometry": { "type": "Point", "coordinates": [ 75.569737, 13.9311723 ] } },
{ "type": "Feature", "properties": { "Botanical": "Eranthemum roseum", "Lower": null, "Family": "Acanthaceae", "Country": null, "State": "Maharashtra", "District": "Ratnagiri", "Collection": "BBJ-213", "Date": "11.01.2001", "latitude": "12.29581", "longitude": "76.639381", "addrtype": "boundary", "addrlocat": "administrative", "rainfall": "", "FAOSOIL": "Nd49-2bc", "DOMSOIL": "Nd" }, "geometry": { "type": "Point", "coordinates": [ 73.276178369930307, 17.27448005 ] } },
{ "type": "Feature", "properties": { "Botanical": "Gymnostachyum febrifugum", "Lower": null, "Family": "Acanthaceae", "Country": null, "State": "Karnataka", "District": "Dakshina Kannada", "Collection": "KFP 3395", "Date": "18.10.1978", "latitude": "15.139393", "longitude": "76.921443", "addrtype": "boundary", "addrlocat": "administrative", "rainfall": "", "FAOSOIL": "Ap21-2b", "DOMSOIL": "Ap" }, "geometry": { "type": "Point", "coordinates": [ 75.100802865079402, 12.8114089 ] } },
{ "type": "Feature", "properties": { "Botanical": "Gymnostachyum latifolium", "Lower": null, "Family": "Acanthaceae", "Country": null, "State": "Karnataka", "District": "Chikmagalur", "Collection": "KFP 4738", "Date": "01.12.1978", "latitude": "15.139393", "longitude": "76.921443", "addrtype": "place", "addrlocat": "county", "rainfall": "2264.3", "FAOSOIL": "Ap21-2b", "DOMSOIL": "Ap" }, "geometry": { "type": "Point", "coordinates": [ 75.5, 13.5 ] } },
{ "type": "Feature", "properties": { "Botanical": "Gymnostachyum polyanthum", "Lower": null, "Family": "Acanthaceae", "Country": null, "State": "Karnataka", "District": "Shimoga", "Collection": "KFP 5341", "Date": "14.12.1978", "latitude": "20.462521", "longitude": "85.88299", "addrtype": "place", "addrlocat": "city", "rainfall": "2146.7", "FAOSOIL": "Ap21-2b", "DOMSOIL": "Ap" }, "geometry": { "type": "Point", "coordinates": [ 75.569737, 13.9311723 ] } },
{ "type": "Feature", "properties": { "Botanical": "Hemigraphis latebrosa", "Lower": null, "Family": "Acanthaceae", "Country": null, "State": "Karnataka", "District": "Bellary", "Collection": "KFP 5862", "Date": "18.01.1979", "latitude": "16.830171", "longitude": "75.710031", "addrtype": "place", "addrlocat": "county", "rainfall": "677.4428571", "FAOSOIL": "Lc5-2b", "DOMSOIL": "Lc" }, "geometry": { "type": "Point", "coordinates": [ 76.8323648, 15.2485413 ] } },
{ "type": "Feature", "properties": { "Botanical": "Hygrophila auriculata", "Lower": null, "Family": "Acanthaceae", "Country": null, "State": "Karnataka", "District": "Belgaum", "Collection": "KFP 3718", "Date": "20.10.1978", "latitude": "29.380304", "longitude": "79.463566", "addrtype": "place", "addrlocat": "county", "rainfall": "", "FAOSOIL": "Vc43-3ab", "DOMSOIL": "Vc" }, "geometry": { "type": "Point", "coordinates": [ 74.75, 16.333333 ] } },
{ "type": "Feature", "properties": { "Botanical": "Hygrophila salicifolia", "Lower": null, "Family": "Acanthaceae", "Country": null, "State": "Karnataka", "District": "Mandya", "Collection": "KFP 6012", "Date": "06.02.1979", "latitude": "24.585445", "longitude": "73.712479", "addrtype": "place", "addrlocat": "town", "rainfall": "792.4571429", "FAOSOIL": "Lc75-2b", "DOMSOIL": "Lc" }, "geometry": { "type": "Point", "coordinates": [ 76.8937392, 12.5217836 ] } },
{ "type": "Feature", "properties": { "Botanical": "Justicia betonica", "Lower": null, "Family": "Acanthaceae", "Country": null, "State": "Andhra Pradesh", "District": "Vishakapatnam", "Collection": "AUV-913", "Date": "30.03.2003", "latitude": "13.92993", "longitude": "75.568101", "addrtype": "landuse", "addrlocat": "railway", "rainfall": null, "FAOSOIL": null, "DOMSOIL": null }, "geometry": { "type": "Point", "coordinates": [ 83.290051119938596, 17.72131135 ] } },
{ "type": "Feature", "properties": { "Botanical": "Justicia dichotoma", "Lower": null, "Family": "Acanthaceae", "Country": null, "State": "Uttarakhand", "District": "Dehradun", "Collection": "RG", "Date": "Sept. 2009", "latitude": "12.29581", "longitude": "76.639381", "addrtype": "place", "addrlocat": "city", "rainfall": "", "FAOSOIL": "Bd29-3c", "DOMSOIL": "Bd" }, "geometry": { "type": "Point", "coordinates": [ 78.0436813, 30.3255646 ] } },
{ "type": "Feature", "properties": { "Botanical": "Justicia diffusa", "Lower": null, "Family": "Acanthaceae", "Country": null, "State": "Karnataka", "District": "Mysore", "Collection": "KFP 2473", "Date": "05.09.1978", "latitude": "15.139393", "longitude": "76.921443", "addrtype": "place", "addrlocat": "city", "rainfall": "831.8571429", "FAOSOIL": "Lc75-2b", "DOMSOIL": "Lc" }, "geometry": { "type": "Point", "coordinates": [ 76.6553609, 12.3051828 ] } },
{ "type": "Feature", "properties": { "Botanical": "Justicia glabra", "Lower": null, "Family": "Acanthaceae", "Country": null, "State": "Karnataka", "District": "Bellary", "Collection": "KFP 5872", "Date": "18.01.1979", "latitude": "22.008698", "longitude": "86.418731", "addrtype": "place", "addrlocat": "county", "rainfall": "677.4428571", "FAOSOIL": "Lc5-2b", "DOMSOIL": "Lc" }, "geometry": { "type": "Point", "coordinates": [ 76.8323648, 15.2485413 ] } },
{ "type": "Feature", "properties": { "Botanical": "Justicia glauca", "Lower": null, "Family": "Acanthaceae", "Country": null, "State": "Karnataka", "District": "Bellary", "Collection": "KFP 4298", "Date": "14.11.1978", "latitude": "14.793707", "longitude": "74.686882", "addrtype": "place", "addrlocat": "county", "rainfall": "677.4428571", "FAOSOIL": "Lc5-2b", "DOMSOIL": "Lc" }, "geometry": { "type": "Point", "coordinates": [ 76.8323648, 15.2485413 ] } },
{ "type": "Feature", "properties": { "Botanical": "Justicia japonica", "Lower": null, "Family": "Acanthaceae", "Country": null, "State": "Orissa", "District": "Cuttack", "Collection": "DP\/RM-6135", "Date": "19.12.2000", "latitude": "7.083333", "longitude": "93.8", "addrtype": "boundary", "addrlocat": "administrative", "rainfall": "1762.314286", "FAOSOIL": "Lf92-1a", "DOMSOIL": "Lf" }, "geometry": { "type": "Point", "coordinates": [ 85.461195977126494, 20.3640012 ] } },
{ "type": "Feature", "properties": { "Botanical": "Justicia neesii", "Lower": null, "Family": "Acanthaceae", "Country": null, "State": "Karnataka", "District": "Chitradurga", "Collection": "KFP 3990", "Date": "13.11.1978", "latitude": "22.008698", "longitude": "86.418731", "addrtype": "place", "addrlocat": "town", "rainfall": "727.5", "FAOSOIL": "Lc75-2b", "DOMSOIL": "Lc" }, "geometry": { "type": "Point", "coordinates": [ 76.4005122, 14.2266443 ] } },
{ "type": "Feature", "properties": { "Botanical": "Justicia nilgherrensis", "Lower": null, "Family": "Acanthaceae", "Country": null, "State": "Karnataka", "District": "Bijapur", "Collection": "KFP 9289", "Date": "15.09.1979", "latitude": "12.843781", "longitude": "75.247906", "addrtype": "place", "addrlocat": "city", "rainfall": "643.9857143", "FAOSOIL": "Vc43-3ab", "DOMSOIL": "Vc" }, "geometry": { "type": "Point", "coordinates": [ 75.7175387, 16.8269911 ] } },
{ "type": "Feature", "properties": { "Botanical": "Justicia simplex", "Lower": null, "Family": "Acanthaceae", "Country": null, "State": "Uttarakhand", "District": "Nainital", "Collection": "KSN\/KCP-59", "Date": "Nov. 1986", "latitude": "13.92993", "longitude": "75.568101", "addrtype": "place", "addrlocat": "town", "rainfall": "", "FAOSOIL": "Bd29-3c", "DOMSOIL": "Bd" }, "geometry": { "type": "Point", "coordinates": [ 79.4555358, 29.3920381 ] } },
{ "type": "Feature", "properties": { "Botanical": "Justicia prostrata", "Lower": null, "Family": "Acanthaceae", "Country": null, "State": "Karnataka", "District": "Kodagu", "Collection": "KFP 8469", "Date": "22.07.1979", "latitude": "12.337494", "longitude": "75.806908", "addrtype": "boundary", "addrlocat": "administrative", "rainfall": "2817.842857", "FAOSOIL": "Ap21-2b", "DOMSOIL": "Ap" }, "geometry": { "type": "Point", "coordinates": [ 75.667723595085207, 12.38117345 ] } },
{ "type": "Feature", "properties": { "Botanical": "Justicia quinqueangularis", "Lower": null, "Family": "Acanthaceae", "Country": null, "State": "Rajasthan", "District": "Udaipur", "Collection": "4630", "Date": "27.01.1970", "latitude": "13.006814", "longitude": "76.099552", "addrtype": "boundary", "addrlocat": "administrative", "rainfall": "", "FAOSOIL": "Xh12-2a", "DOMSOIL": "Xh" }, "geometry": { "type": "Point", "coordinates": [ 73.955154417604405, 24.38033415 ] } },
{ "type": "Feature", "properties": { "Botanical": "Justicia santapaui", "Lower": null, "Family": "Acanthaceae", "Country": null, "State": "Karnataka", "District": "Shimoga", "Collection": "KFP 6164", "Date": "07.03.1979", "latitude": "13.315258", "longitude": "75.775402", "addrtype": "place", "addrlocat": "city", "rainfall": "2146.7", "FAOSOIL": "Ap21-2b", "DOMSOIL": "Ap" }, "geometry": { "type": "Point", "coordinates": [ 75.569737, 13.9311723 ] } },
{ "type": "Feature", "properties": { "Botanical": "Justicia tranquebariensis", "Lower": null, "Family": "Acanthaceae", "Country": null, "State": "Karnataka", "District": "Mysore", "Collection": "KFP 2236", "Date": "21.08.1978", "latitude": "31.104815", "longitude": "77.173403", "addrtype": "place", "addrlocat": "city", "rainfall": "831.8571429", "FAOSOIL": "Lc75-2b", "DOMSOIL": "Lc" }, "geometry": { "type": "Point", "coordinates": [ 76.6553609, 12.3051828 ] } },
{ "type": "Feature", "properties": { "Botanical": "Lepidagathis cristata", "Lower": null, "Family": "Acanthaceae", "Country": null, "State": "Karnataka", "District": "Bellary", "Collection": "KFP 5923", "Date": "20.01.1979", "latitude": "13.315258", "longitude": "75.775402", "addrtype": "place", "addrlocat": "county", "rainfall": "677.4428571", "FAOSOIL": "Lc5-2b", "DOMSOIL": "Lc" }, "geometry": { "type": "Point", "coordinates": [ 76.8323648, 15.2485413 ] } },
{ "type": "Feature", "properties": { "Botanical": "Lepidagathis fasciculata", "Lower": null, "Family": "Acanthaceae", "Country": null, "State": "Orissa", "District": "Cuttack", "Collection": "DP\/RM-6123", "Date": "19.12.2000", "latitude": "20.462521", "longitude": "85.88299", "addrtype": "boundary", "addrlocat": "administrative", "rainfall": "1762.314286", "FAOSOIL": "Lf92-1a", "DOMSOIL": "Lf" }, "geometry": { "type": "Point", "coordinates": [ 85.461195977126494, 20.3640012 ] } },
{ "type": "Feature", "properties": { "Botanical": "Lepidagathis incurva", "Lower": null, "Family": "Acanthaceae", "Country": null, "State": "Orissa", "District": "Mayurbhanj", "Collection": "BMS\/SM\/SSM-1", "Date": "Dec. 1999", "latitude": "27.481111", "longitude": "94.557285", "addrtype": "boundary", "addrlocat": "administrative", "rainfall": "1647.314286", "FAOSOIL": "Lf96-2ab", "DOMSOIL": "Lf" }, "geometry": { "type": "Point", "coordinates": [ 86.394367864737703, 21.9239262 ] } },
{ "type": "Feature", "properties": { "Botanical": "Lepidagathis spinosa", "Lower": null, "Family": "Acanthaceae", "Country": null, "State": "Karnataka", "District": "Uttara Kannada", "Collection": "KFP 6051", "Date": "14.02.1979", "latitude": "24.782125", "longitude": "92.85771", "addrtype": "boundary", "addrlocat": "administrative", "rainfall": "", "FAOSOIL": "Ap21-2b", "DOMSOIL": "Ap" }, "geometry": { "type": "Point", "coordinates": [ 74.472916304597902, 14.6726379 ] } },
{ "type": "Feature", "properties": { "Botanical": "Mananthes sumatrana", "Lower": null, "Family": "Acanthaceae", "Country": null, "State": "Andaman & Nicobar", "District": "Nicobar", "Collection": "SES-06-28", "Date": "10.02.2002", "latitude": "14.793707", "longitude": "74.686882", "addrtype": "place", "addrlocat": "county", "rainfall": "2444.742857", "FAOSOIL": "Bf18-2\/3b", "DOMSOIL": "Bf" }, "geometry": { "type": "Point", "coordinates": [ 93.0000194, 10.0001051 ] } },
{ "type": "Feature", "properties": { "Botanical": "Nelsonia campestris", "Lower": null, "Family": "Acanthaceae", "Country": null, "State": "Orissa", "District": "Mayurbhanj", "Collection": "BMS\/SM\/SSM-21", "Date": "Dec. 1999", "latitude": "22.008698", "longitude": "86.418731", "addrtype": "boundary", "addrlocat": "administrative", "rainfall": "1647.314286", "FAOSOIL": "Lf96-2ab", "DOMSOIL": "Lf" }, "geometry": { "type": "Point", "coordinates": [ 86.394367864737703, 21.9239262 ] } },
{ "type": "Feature", "properties": { "Botanical": "Nilgirianthus ciliatus", "Lower": null, "Family": "Acanthaceae", "Country": null, "State": "Karnataka", "District": "Dakshina Kannada", "Collection": "KFP 4154", "Date": "13.11.1978", "latitude": "17.329731", "longitude": "76.834296", "addrtype": "boundary", "addrlocat": "administrative", "rainfall": "", "FAOSOIL": "Ap21-2b", "DOMSOIL": "Ap" }, "geometry": { "type": "Point", "coordinates": [ 75.100802865079402, 12.8114089 ] } },
{ "type": "Feature", "properties": { "Botanical": "Nilgirianthus foliosus", "Lower": null, "Family": "Acanthaceae", "Country": null, "State": "Karnataka", "District": "Shimoga", "Collection": "KFP 5159", "Date": "28.12.1978", "latitude": "14.793707", "longitude": "74.686882", "addrtype": "place", "addrlocat": "city", "rainfall": "2146.7", "FAOSOIL": "Ap21-2b", "DOMSOIL": "Ap" }, "geometry": { "type": "Point", "coordinates": [ 75.569737, 13.9311723 ] } },
{ "type": "Feature", "properties": { "Botanical": "Nilgirianthus heyneanus", "Lower": null, "Family": "Acanthaceae", "Country": null, "State": "Karnataka", "District": "Coorg", "Collection": "KFP 1279", "Date": "11.06.1978", "latitude": "30.316495", "longitude": "78.032192", "addrtype": "place", "addrlocat": "town", "rainfall": null, "FAOSOIL": null, "DOMSOIL": null }, "geometry": { "type": "Point", "coordinates": [ 75.740031, 12.4204003 ] } },
{ "type": "Feature", "properties": { "Botanical": "Nilgirianthus neilgherrensis", "Lower": null, "Family": "Acanthaceae", "Country": null, "State": "Karnataka", "District": "Hassan", "Collection": "KFP 5485", "Date": "26.12.1978", "latitude": "31.708166", "longitude": "76.931367", "addrtype": "place", "addrlocat": "town", "rainfall": "1184.371429", "FAOSOIL": "Ap21-2b", "DOMSOIL": "Ap" }, "geometry": { "type": "Point", "coordinates": [ 76.0992703, 13.0070817 ] } },
{ "type": "Feature", "properties": { "Botanical": "Nilgirianthus urceolaris", "Lower": null, "Family": "Acanthaceae", "Country": null, "State": "Karnataka", "District": "Chikmagalur", "Collection": "KFP 3343", "Date": "16.10.1978", "latitude": "16.990215", "longitude": "73.312023", "addrtype": "place", "addrlocat": "county", "rainfall": "2264.3", "FAOSOIL": "Ap21-2b", "DOMSOIL": "Ap" }, "geometry": { "type": "Point", "coordinates": [ 75.5, 13.5 ] } },
{ "type": "Feature", "properties": { "Botanical": "Nilgirianthus warreensis", "Lower": null, "Family": "Acanthaceae", "Country": null, "State": "Karnataka", "District": "Kodagu", "Collection": "KFP 3290", "Date": "11.10.1978", "latitude": "31.104815", "longitude": "77.173403", "addrtype": "boundary", "addrlocat": "administrative", "rainfall": "2817.842857", "FAOSOIL": "Ap21-2b", "DOMSOIL": "Ap" }, "geometry": { "type": "Point", "coordinates": [ 75.667723595085207, 12.38117345 ] } },
{ "type": "Feature", "properties": { "Botanical": "Pachystachys lutea", "Lower": null, "Family": "Acanthaceae", "Country": null, "State": "Himachal Pradesh", "District": "Shimla", "Collection": "APRG-49\/2005", "Date": "16.10.2005", "latitude": "11.491604", "longitude": "76.733652", "addrtype": "boundary", "addrlocat": "administrative", "rainfall": "", "FAOSOIL": "Be78-2c", "DOMSOIL": "Be" }, "geometry": { "type": "Point", "coordinates": [ 77.700625148440295, 31.24445 ] } },
{ "type": "Feature", "properties": { "Botanical": "Phaulopsis dorsiflora", "Lower": null, "Family": "Acanthaceae", "Country": null, "State": "Karnataka", "District": "Chikmagalur", "Collection": "KFP 4833", "Date": "03.12.1978", "latitude": "11.703206", "longitude": "76.0834", "addrtype": "place", "addrlocat": "county", "rainfall": "2264.3", "FAOSOIL": "Ap21-2b", "DOMSOIL": "Ap" }, "geometry": { "type": "Point", "coordinates": [ 75.5, 13.5 ] } },
{ "type": "Feature", "properties": { "Botanical": "Phaulopsis longifolia", "Lower": null, "Family": "Acanthaceae", "Country": null, "State": "Orissa", "District": "Cuttack", "Collection": "DP\/RM-6103", "Date": "20.12.2000", "latitude": "12.29581", "longitude": "76.639381", "addrtype": "boundary", "addrlocat": "administrative", "rainfall": "1762.314286", "FAOSOIL": "Lf92-1a", "DOMSOIL": "Lf" }, "geometry": { "type": "Point", "coordinates": [ 85.461195977126494, 20.3640012 ] } },
{ "type": "Feature", "properties": { "Botanical": "Pleocaulus sessiloides", "Lower": null, "Family": "Acanthaceae", "Country": null, "State": "Karnataka", "District": "Chikmagalur", "Collection": "KFP 4754", "Date": "01.12.1978", "latitude": "31.957851", "longitude": "77.10946", "addrtype": "place", "addrlocat": "county", "rainfall": "2264.3", "FAOSOIL": "Ap21-2b", "DOMSOIL": "Ap" }, "geometry": { "type": "Point", "coordinates": [ 75.5, 13.5 ] } },
{ "type": "Feature", "properties": { "Botanical": "Phlogacanthus thyrsiflorus", "Lower": null, "Family": "Acanthaceae", "Country": null, "State": "Assam", "District": "Dhemaji", "Collection": "DRLT-37", "Date": "26.08.2001", "latitude": "30.404105", "longitude": "79.331769", "addrtype": "place", "addrlocat": "town", "rainfall": "", "FAOSOIL": "Ao80-2bc", "DOMSOIL": "Ao" }, "geometry": { "type": "Point", "coordinates": [ 94.5629622, 27.4763797 ] } },
{ "type": "Feature", "properties": { "Botanical": "Phlogacanthus tubiflorus", "Lower": null, "Family": "Acanthaceae", "Country": null, "State": "Assam", "District": "Cachar", "Collection": "GD-122", "Date": "22.01.2000", "latitude": "31.104815", "longitude": "77.173403", "addrtype": "boundary", "addrlocat": "administrative", "rainfall": "2876.557143", "FAOSOIL": "Ao76-2\/3c", "DOMSOIL": "Ao" }, "geometry": { "type": "Point", "coordinates": [ 92.881511187499996, 24.7569908 ] } },
{ "type": "Feature", "properties": { "Botanical": "Rungia linifolia", "Lower": null, "Family": "Acanthaceae", "Country": null, "State": "Karnataka", "District": "Uttara Kannada", "Collection": "KFP 6043", "Date": "14.02.1979", "latitude": "29.58286", "longitude": "80.218188", "addrtype": "boundary", "addrlocat": "administrative", "rainfall": "", "FAOSOIL": "Ap21-2b", "DOMSOIL": "Ap" }, "geometry": { "type": "Point", "coordinates": [ 74.472916304597902, 14.6726379 ] } },
{ "type": "Feature", "properties": { "Botanical": "Rungia pectinata", "Lower": null, "Family": "Acanthaceae", "Country": null, "State": "Orissa", "District": "Mayurbhanj", "Collection": "BMS\/SM\/SSM-15", "Date": "Dec. 1999", "latitude": "31.957851", "longitude": "77.10946", "addrtype": "boundary", "addrlocat": "administrative", "rainfall": "1647.314286", "FAOSOIL": "Lf96-2ab", "DOMSOIL": "Lf" }, "geometry": { "type": "Point", "coordinates": [ 86.394367864737703, 21.9239262 ] } },
{ "type": "Feature", "properties": { "Botanical": "Rungia repens", "Lower": null, "Family": "Acanthaceae", "Country": null, "State": "Karnataka", "District": "Gulbarga", "Collection": "KFP 10069", "Date": "27.10.1979", "latitude": "31.104815", "longitude": "77.173403", "addrtype": "place", "addrlocat": "county", "rainfall": "777.8571429", "FAOSOIL": "Vc43-3ab", "DOMSOIL": "Vc" }, "geometry": { "type": "Point", "coordinates": [ 77.083333, 17.166667 ] } },
{ "type": "Feature", "properties": { "Botanical": "Staurogyne zeylanica", "Lower": null, "Family": "Acanthaceae", "Country": null, "State": "Karnataka", "District": "Uttara Kannada", "Collection": "KFP 13072", "Date": "24.06.1981", "latitude": "29.380304", "longitude": "79.463566", "addrtype": "boundary", "addrlocat": "administrative", "rainfall": "", "FAOSOIL": "Ap21-2b", "DOMSOIL": "Ap" }, "geometry": { "type": "Point", "coordinates": [ 74.472916304597902, 14.6726379 ] } },
{ "type": "Feature", "properties": { "Botanical": "Strobilanthes alata", "Lower": null, "Family": "Acanthaceae", "Country": null, "State": "Uttarakhand", "District": "Dehradun", "Collection": "RG", "Date": "Sept. 1999", "latitude": "14.793707", "longitude": "74.686882", "addrtype": "place", "addrlocat": "city", "rainfall": "", "FAOSOIL": "Bd29-3c", "DOMSOIL": "Bd" }, "geometry": { "type": "Point", "coordinates": [ 78.0436813, 30.3255646 ] } },
{ "type": "Feature", "properties": { "Botanical": "Strobilanthes atropurpurea", "Lower": null, "Family": "Acanthaceae", "Country": null, "State": "Himachal Pradesh", "District": "Mandi", "Collection": "AP-2006", "Date": "May 2006", "latitude": "15.139393", "longitude": "76.921443", "addrtype": "boundary", "addrlocat": "administrative", "rainfall": "1274.471429", "FAOSOIL": "I-B-U", "DOMSOIL": "I" }, "geometry": { "type": "Point", "coordinates": [ 76.995294742966095, 31.6451913 ] } },
{ "type": "Feature", "properties": { "Botanical": "Strobilanthes callosa", "Lower": null, "Family": "Acanthaceae", "Country": null, "State": "Maharashtra", "District": "Ratnagiri", "Collection": "BBJ-172", "Date": "07.12.2000", "latitude": "16.830171", "longitude": "75.710031", "addrtype": "boundary", "addrlocat": "administrative", "rainfall": "", "FAOSOIL": "Nd49-2bc", "DOMSOIL": "Nd" }, "geometry": { "type": "Point", "coordinates": [ 73.276178369930307, 17.27448005 ] } },
{ "type": "Feature", "properties": { "Botanical": "Strobilanthes glutinosa", "Lower": null, "Family": "Acanthaceae", "Country": null, "State": "Himachal Pradesh", "District": "Shimla", "Collection": null, "Date": "06.01.2006", "latitude": "14.793707", "longitude": "74.686882", "addrtype": "boundary", "addrlocat": "administrative", "rainfall": "", "FAOSOIL": "Be78-2c", "DOMSOIL": "Be" }, "geometry": { "type": "Point", "coordinates": [ 77.700625148440295, 31.24445 ] } },
{ "type": "Feature", "properties": { "Botanical": "Strobilanthes kunthiana", "Lower": null, "Family": "Acanthaceae", "Country": null, "State": "Tamil Nadu", "District": "Nilgiris", "Collection": "RN\/06", "Date": "12.09.2006", "latitude": "28.459497", "longitude": "77.026638", "addrtype": "place", "addrlocat": "county", "rainfall": null, "FAOSOIL": null, "DOMSOIL": null }, "geometry": { "type": "Point", "coordinates": [ 76.7, 11.4 ] } },
{ "type": "Feature", "properties": { "Botanical": "Thunbergia fragrans", "Lower": null, "Family": "Acanthaceae", "Country": null, "State": "Karnataka", "District": "Mysore", "Collection": "KFP 2429", "Date": "05.09.1978", "latitude": "14.230559", "longitude": "76.398454", "addrtype": "place", "addrlocat": "city", "rainfall": "831.8571429", "FAOSOIL": "Lc75-2b", "DOMSOIL": "Lc" }, "geometry": { "type": "Point", "coordinates": [ 76.6553609, 12.3051828 ] } },
{ "type": "Feature", "properties": { "Botanical": "Xenacanthus pulneyensis", "Lower": null, "Family": "Acanthaceae", "Country": null, "State": "Karnataka", "District": "Mysore", "Collection": "KFP 2490", "Date": "25.11.1978", "latitude": "13.92993", "longitude": "75.568101", "addrtype": "place", "addrlocat": "city", "rainfall": "831.8571429", "FAOSOIL": "Lc75-2b", "DOMSOIL": "Lc" }, "geometry": { "type": "Point", "coordinates": [ 76.6553609, 12.3051828 ] } },
{ "type": "Feature", "properties": { "Botanical": "Acer caesium", "Lower": null, "Family": "Aceraceae", "Country": null, "State": "Himachal Pradesh", "District": "Kullu", "Collection": "SHM\/08-80", "Date": "17.07.07", "latitude": "31.514318", "longitude": "75.911483", "addrtype": "boundary", "addrlocat": "administrative", "rainfall": "", "FAOSOIL": "Be78-2c", "DOMSOIL": "Be" }, "geometry": { "type": "Point", "coordinates": [ 77.435766575380995, 31.88068535 ] } },
{ "type": "Feature", "properties": { "Botanical": "Acer caudatum", "Lower": null, "Family": "Aceraceae", "Country": null, "State": "Uttarakhand", "District": "Chamoli", "Collection": "KSN\/VKD\/GK\/HYS\/LSK-337", "Date": "Sept. 2000", "latitude": "12.29581", "longitude": "76.639381", "addrtype": "boundary", "addrlocat": "administrative", "rainfall": "", "FAOSOIL": "Bd29-3c", "DOMSOIL": "Bd" }, "geometry": { "type": "Point", "coordinates": [ 79.603134337402494, 30.51589035 ] } },
{ "type": "Feature", "properties": { "Botanical": "Acer oblongum", "Lower": null, "Family": "Aceraceae", "Country": null, "State": "Himachal Pradesh", "District": "Shimla", "Collection": "SHM\/07\/P\/102", "Date": "08.07.2006", "latitude": "34.152586", "longitude": "77.577053", "addrtype": "boundary", "addrlocat": "administrative", "rainfall": "", "FAOSOIL": "Be78-2c", "DOMSOIL": "Be" }, "geometry": { "type": "Point", "coordinates": [ 77.700625148440295, 31.24445 ] } },
{ "type": "Feature", "properties": { "Botanical": "Acer platanoides", "Lower": null, "Family": "Aceraceae", "Country": null, "State": "Uttarakhand", "District": "Pithoragarh", "Collection": "AP-40\/90", "Date": "07.06.1990", "latitude": "32.246137", "longitude": "78.034916", "addrtype": "boundary", "addrlocat": "administrative", "rainfall": "", "FAOSOIL": "Bd29-3c", "DOMSOIL": "Bd" }, "geometry": { "type": "Point", "coordinates": [ 80.476126000884094, 30.12666775 ] } },
{ "type": "Feature", "properties": { "Botanical": "Acer sterculiaceum", "Lower": null, "Family": "Aceraceae", "Country": null, "State": "Himachal Pradesh", "District": "Kullu", "Collection": "SHM\/08-121", "Date": "14.07.2007", "latitude": "30.404105", "longitude": "79.331769", "addrtype": "boundary", "addrlocat": "administrative", "rainfall": "", "FAOSOIL": "Be78-2c", "DOMSOIL": "Be" }, "geometry": { "type": "Point", "coordinates": [ 77.435766575380995, 31.88068535 ] } },
{ "type": "Feature", "properties": { "Botanical": "Actinidia arguta", "Lower": null, "Family": "Actinidiaceae", "Country": null, "State": "Himachal Pradesh", "District": "Shimla", "Collection": "SHM\/07\/P\/53", "Date": "01.05.2006", "latitude": "31.104815", "longitude": "77.173403", "addrtype": "boundary", "addrlocat": "administrative", "rainfall": "", "FAOSOIL": "Be78-2c", "DOMSOIL": "Be" }, "geometry": { "type": "Point", "coordinates": [ 77.700625148440295, 31.24445 ] } },
{ "type": "Feature", "properties": { "Botanical": "Actinidia chinensis", "Lower": null, "Family": "Actinidiaceae", "Country": null, "State": "Uttarakhand", "District": "Nainital", "Collection": "MGD-54\/03", "Date": "26.07.2003", "latitude": "29.380304", "longitude": "79.463566", "addrtype": "place", "addrlocat": "town", "rainfall": "", "FAOSOIL": "Bd29-3c", "DOMSOIL": "Bd" }, "geometry": { "type": "Point", "coordinates": [ 79.4555358, 29.3920381 ] } },
{ "type": "Feature", "properties": { "Botanical": "Dracaena terniflora", "Lower": null, "Family": "Agavaceae", "Country": null, "State": "Karnataka", "District": "Uttara Kannada", "Collection": "KFP 13205", "Date": "17.07.1981", "latitude": "29.380304", "longitude": "79.463566", "addrtype": "boundary", "addrlocat": "administrative", "rainfall": "", "FAOSOIL": "Ap21-2b", "DOMSOIL": "Ap" }, "geometry": { "type": "Point", "coordinates": [ 74.472916304597902, 14.6726379 ] } },
{ "type": "Feature", "properties": { "Botanical": "Corbichonia decumbens", "Lower": null, "Family": "Aizoaceae", "Country": null, "State": "Karnataka", "District": "Bellary", "Collection": "KFP 5941", "Date": "20.01.1979", "latitude": "31.104815", "longitude": "77.173403", "addrtype": "place", "addrlocat": "county", "rainfall": "677.4428571", "FAOSOIL": "Lc5-2b", "DOMSOIL": "Lc" }, "geometry": { "type": "Point", "coordinates": [ 76.8323648, 15.2485413 ] } },
{ "type": "Feature", "properties": { "Botanical": "Gisekia pharnaceoides", "Lower": null, "Family": "Aizoaceae", "Country": null, "State": "Karnataka", "District": "Bijapur", "Collection": "KFP 9263", "Date": "14.09.1979", "latitude": "30.404105", "longitude": "79.331769", "addrtype": "place", "addrlocat": "city", "rainfall": "643.9857143", "FAOSOIL": "Vc43-3ab", "DOMSOIL": "Vc" }, "geometry": { "type": "Point", "coordinates": [ 75.7175387, 16.8269911 ] } },
{ "type": "Feature", "properties": { "Botanical": "Glinus oppositifolius", "Lower": null, "Family": "Aizoaceae", "Country": null, "State": "Karnataka", "District": "Uttara Kannada", "Collection": "KFP 13089", "Date": "25.06.1981", "latitude": "32.246137", "longitude": "78.034916", "addrtype": "boundary", "addrlocat": "administrative", "rainfall": "", "FAOSOIL": "Ap21-2b", "DOMSOIL": "Ap" }, "geometry": { "type": "Point", "coordinates": [ 74.472916304597902, 14.6726379 ] } },
{ "type": "Feature", "properties": { "Botanical": "Mollugo cerviana", "Lower": null, "Family": "Aizoaceae", "Country": null, "State": "Haryana", "District": "Gurgaon", "Collection": "ERN", "Date": "04.10.2003", "latitude": "29.380304", "longitude": "79.463566", "addrtype": "place", "addrlocat": "city", "rainfall": "565.92", "FAOSOIL": "Yh26-2\/3a", "DOMSOIL": "Yh" }, "geometry": { "type": "Point", "coordinates": [ 77.0299194, 28.4646148 ] } },
{ "type": "Feature", "properties": { "Botanical": "Sesuvium portulacastrum", "Lower": null, "Family": "Aizoaceae", "Country": null, "State": "Andhra Pradesh", "District": "Vishakapatnam", "Collection": "AVV-726", "Date": "11.08.2002", "latitude": "29.380304", "longitude": "79.463566", "addrtype": "landuse", "addrlocat": "railway", "rainfall": null, "FAOSOIL": null, "DOMSOIL": null }, "geometry": { "type": "Point", "coordinates": [ 83.290051119938596, 17.72131135 ] } },
{ "type": "Feature", "properties": { "Botanical": "Zaleya decandra", "Lower": null, "Family": "Aizoaceae", "Country": null, "State": "Karnataka", "District": "Chitradurga", "Collection": "KFP 8773", "Date": "21.08.1979", "latitude": "27.578068", "longitude": "91.875742", "addrtype": "place", "addrlocat": "town", "rainfall": "727.5", "FAOSOIL": "Lc75-2b", "DOMSOIL": "Lc" }, "geometry": { "type": "Point", "coordinates": [ 76.4005122, 14.2266443 ] } },
{ "type": "Feature", "properties": { "Botanical": "Alangium salviifolium", "Lower": null, "Family": "Alangiaceae", "Country": null, "State": "Gujarat", "District": "Dahod", "Collection": "MD-848", "Date": "April 2007", "latitude": "32.246137", "longitude": "78.034916", "addrtype": "boundary", "addrlocat": "administrative", "rainfall": null, "FAOSOIL": null, "DOMSOIL": null }, "geometry": { "type": "Point", "coordinates": [ 74.202873869957202, 22.85229895 ] } },
{ "type": "Feature", "properties": { "Botanical": "Alangium salviifolium", "Lower": null, "Family": "Alangiaceae", "Country": null, "State": "Karnataka", "District": "Shimoga", "Collection": "KFP 7424", "Date": "24.04.1979", "latitude": "34.553852", "longitude": "76.134894", "addrtype": "place", "addrlocat": "city", "rainfall": "2146.7", "FAOSOIL": "Ap21-2b", "DOMSOIL": "Ap" }, "geometry": { "type": "Point", "coordinates": [ 75.569737, 13.9311723 ] } },
{ "type": "Feature", "properties": { "Botanical": "Alisma plantago-aquatica", "Lower": null, "Family": "Alismataceae", "Country": null, "State": "Punjab", "District": "Hoshiarpur", "Collection": null, "Date": null, "latitude": "31.104815", "longitude": "77.173403", "addrtype": "boundary", "addrlocat": "administrative", "rainfall": "", "FAOSOIL": "Lo44-1b", "DOMSOIL": "Lo" }, "geometry": { "type": "Point", "coordinates": [ 75.849745615540698, 31.606205 ] } },
{ "type": "Feature", "properties": { "Botanical": "Limnophyton obtusifolium", "Lower": null, "Family": "Alismataceae", "Country": null, "State": "Karnataka", "District": "Mysore", "Collection": null, "Date": "Feb.\/Mar. 1979", "latitude": "29.380304", "longitude": "79.463566", "addrtype": "place", "addrlocat": "city", "rainfall": "831.8571429", "FAOSOIL": "Lc75-2b", "DOMSOIL": "Lc" }, "geometry": { "type": "Point", "coordinates": [ 76.6553609, 12.3051828 ] } },
{ "type": "Feature", "properties": { "Botanical": "Sagittaria sagittifolia", "Lower": null, "Family": "Alismataceae", "Country": null, "State": "Andhra Pradesh", "District": "East Godavari", "Collection": null, "Date": null, "latitude": "30.404105", "longitude": "79.331769", "addrtype": "place", "addrlocat": "county", "rainfall": "", "FAOSOIL": "Ne58-1bc", "DOMSOIL": "Ne" }, "geometry": { "type": "Point", "coordinates": [ 81.833333, 17.833333 ] } },
{ "type": "Feature", "properties": { "Botanical": "Allium ascalonicum", "Lower": null, "Family": "Alliaceae", "Country": null, "State": "Uttarakhand", "District": "Nainital", "Collection": null, "Date": "05.05.1998", "latitude": "31.104815", "longitude": "77.173403", "addrtype": "place", "addrlocat": "town", "rainfall": "", "FAOSOIL": "Bd29-3c", "DOMSOIL": "Bd" }, "geometry": { "type": "Point", "coordinates": [ 79.4555358, 29.3920381 ] } },
{ "type": "Feature", "properties": { "Botanical": "Allium auriculatum", "Lower": null, "Family": "Alliaceae", "Country": null, "State": "Jammu & Kashmir", "District": "Leh", "Collection": "MGB- 33", "Date": "30.06.2003", "latitude": "27.6094", "longitude": "75.139911", "addrtype": "boundary", "addrlocat": "administrative", "rainfall": null, "FAOSOIL": null, "DOMSOIL": null }, "geometry": { "type": "Point", "coordinates": [ 77.766394006977904, 34.00530145 ] } },
{ "type": "Feature", "properties": { "Botanical": "Allium bakeri", "Lower": null, "Family": "Alliaceae", "Country": null, "State": "Himachal Pradesh", "District": "Lahaul & Spiti", "Collection": null, "Date": "12.08.1984", "latitude": "17.389138", "longitude": "77.836728", "addrtype": "boundary", "addrlocat": "administrative", "rainfall": null, "FAOSOIL": null, "DOMSOIL": null }, "geometry": { "type": "Point", "coordinates": [ 77.568440931035198, 32.5035645 ] } },
{ "type": "Feature", "properties": { "Botanical": "Allium bakeri", "Lower": null, "Family": "Alliaceae", "Country": null, "State": "Himachal Pradesh", "District": "Lahaul & Spiti", "Collection": null, "Date": null, "latitude": "17.385044", "longitude": "78.486671", "addrtype": "boundary", "addrlocat": "administrative", "rainfall": null, "FAOSOIL": null, "DOMSOIL": null }, "geometry": { "type": "Point", "coordinates": [ 77.568440931035198, 32.5035645 ] } },
{ "type": "Feature", "properties": { "Botanical": "Allium carolinianum", "Lower": null, "Family": "Alliaceae", "Country": null, "State": "Himachal Pradesh", "District": "Lahaul & Spiti", "Collection": "SHM\/08-129", "Date": "01.09.2005", "latitude": "25.238122", "longitude": "87.645359", "addrtype": "boundary", "addrlocat": "administrative", "rainfall": null, "FAOSOIL": null, "DOMSOIL": null }, "geometry": { "type": "Point", "coordinates": [ 77.568440931035198, 32.5035645 ] } },
{ "type": "Feature", "properties": { "Botanical": "Allium cepa", "Lower": "var. proliferum (Moench) Regel", "Family": "Alliaceae", "Country": null, "State": "Jammu & Kashmir", "District": "Srinagar", "Collection": "BLM", "Date": "May 2001", "latitude": "12.709449", "longitude": "77.280742", "addrtype": "place", "addrlocat": "city", "rainfall": "", "FAOSOIL": "", "DOMSOIL": "" }, "geometry": { "type": "Point", "coordinates": [ 74.8204443, 34.0747444 ] } },
{ "type": "Feature", "properties": { "Botanical": "Allium cernuum", "Lower": null, "Family": "Alliaceae", "Country": null, "State": "Uttarakhand", "District": "Chamoli", "Collection": "315", "Date": "May 1990", "latitude": "24.782125", "longitude": "92.85771", "addrtype": "boundary", "addrlocat": "administrative", "rainfall": "", "FAOSOIL": "Bd29-3c", "DOMSOIL": "Bd" }, "geometry": { "type": "Point", "coordinates": [ 79.603134337402494, 30.51589035 ] } },
{ "type": "Feature", "properties": { "Botanical": "Allium cernuum", "Lower": null, "Family": "Alliaceae", "Country": null, "State": "Himachal Pradesh", "District": "Shimla", "Collection": "AP", "Date": "April 2005", "latitude": "28.459497", "longitude": "77.026638", "addrtype": "boundary", "addrlocat": "administrative", "rainfall": "", "FAOSOIL": "Be78-2c", "DOMSOIL": "Be" }, "geometry": { "type": "Point", "coordinates": [ 77.700625148440295, 31.24445 ] } },
{ "type": "Feature", "properties": { "Botanical": "Allium chinense", "Lower": null, "Family": "Alliaceae", "Country": null, "State": "Uttarakhand", "District": "Nainital", "Collection": null, "Date": "04.10.1991", "latitude": "14.793707", "longitude": "74.686882", "addrtype": "place", "addrlocat": "town", "rainfall": "", "FAOSOIL": "Bd29-3c", "DOMSOIL": "Bd" }, "geometry": { "type": "Point", "coordinates": [ 79.4555358, 29.3920381 ] } },
{ "type": "Feature", "properties": { "Botanical": "Allium chinense", "Lower": null, "Family": "Alliaceae", "Country": null, "State": "Uttarakhand", "District": "Nainital", "Collection": "E-3", "Date": "23.09.2005", "latitude": "16.990215", "longitude": "73.312023", "addrtype": "place", "addrlocat": "town", "rainfall": "", "FAOSOIL": "Bd29-3c", "DOMSOIL": "Bd" }, "geometry": { "type": "Point", "coordinates": [ 79.4555358, 29.3920381 ] } },
{ "type": "Feature", "properties": { "Botanical": "Allium clarkei", "Lower": null, "Family": "Alliaceae", "Country": null, "State": "Uttarakhand", "District": "Nainital", "Collection": null, "Date": null, "latitude": "32.099803", "longitude": "76.269101", "addrtype": "place", "addrlocat": "town", "rainfall": "", "FAOSOIL": "Bd29-3c", "DOMSOIL": "Bd" }, "geometry": { "type": "Point", "coordinates": [ 79.4555358, 29.3920381 ] } },
{ "type": "Feature", "properties": { "Botanical": "Allium consanguineum", "Lower": null, "Family": "Alliaceae", "Country": null, "State": "Himachal Pradesh", "District": "Lahaul & Spiti", "Collection": "SHM\/08-127", "Date": "06.09.2005", "latitude": "11.926147", "longitude": "76.943731", "addrtype": "boundary", "addrlocat": "administrative", "rainfall": null, "FAOSOIL": null, "DOMSOIL": null }, "geometry": { "type": "Point", "coordinates": [ 77.568440931035198, 32.5035645 ] } },
{ "type": "Feature", "properties": { "Botanical": "Allium fistulosum", "Lower": null, "Family": "Alliaceae", "Country": null, "State": "Himachal Pradesh", "District": "Shimla", "Collection": "SHM\/07\/P\/75", "Date": "08.04.2006", "latitude": "13.92993", "longitude": "75.568101", "addrtype": "boundary", "addrlocat": "administrative", "rainfall": "", "FAOSOIL": "Be78-2c", "DOMSOIL": "Be" }, "geometry": { "type": "Point", "coordinates": [ 77.700625148440295, 31.24445 ] } },
{ "type": "Feature", "properties": { "Botanical": "Allium govanianum", "Lower": null, "Family": "Alliaceae", "Country": null, "State": "Uttarakhand", "District": "Chamoli", "Collection": "VJ\/Eval.\/NBPGR\/2004", "Date": "11.06.2004", "latitude": "31.104815", "longitude": "77.173403", "addrtype": "boundary", "addrlocat": "administrative", "rainfall": "", "FAOSOIL": "Bd29-3c", "DOMSOIL": "Bd" }, "geometry": { "type": "Point", "coordinates": [ 79.603134337402494, 30.51589035 ] } },
{ "type": "Feature", "properties": { "Botanical": "Allium grandiflorum", "Lower": null, "Family": "Alliaceae", "Country": null, "State": "Uttarakhand", "District": "Nainital", "Collection": "AP", "Date": "Sept. 1999", "latitude": "10.527642", "longitude": "76.214435", "addrtype": "place", "addrlocat": "town", "rainfall": "", "FAOSOIL": "Bd29-3c", "DOMSOIL": "Bd" }, "geometry": { "type": "Point", "coordinates": [ 79.4555358, 29.3920381 ] } },
{ "type": "Feature", "properties": { "Botanical": "Allium griffithianum", "Lower": null, "Family": "Alliaceae", "Country": null, "State": "Himachal Pradesh", "District": "Lahaul & Spiti", "Collection": "SHM\/08-132", "Date": "06.09.2005", "latitude": "10.527642", "longitude": "76.214435", "addrtype": "boundary", "addrlocat": "administrative", "rainfall": null, "FAOSOIL": null, "DOMSOIL": null }, "geometry": { "type": "Point", "coordinates": [ 77.568440931035198, 32.5035645 ] } },
{ "type": "Feature", "properties": { "Botanical": "Allium griffithianum", "Lower": null, "Family": "Alliaceae", "Country": null, "State": "Uttarakhand", "District": "Nainital", "Collection": "AP", "Date": "Sept. 1999", "latitude": "32.246137", "longitude": "78.034916", "addrtype": "place", "addrlocat": "town", "rainfall": "", "FAOSOIL": "Bd29-3c", "DOMSOIL": "Bd" }, "geometry": { "type": "Point", "coordinates": [ 79.4555358, 29.3920381 ] } },
{ "type": "Feature", "properties": { "Botanical": "Allium hookeri", "Lower": null, "Family": "Alliaceae", "Country": null, "State": "Uttarakhand", "District": "Nainital", "Collection": "E-7", "Date": "23.09.2005", "latitude": "13.339168", "longitude": "77.113998", "addrtype": "place", "addrlocat": "town", "rainfall": "", "FAOSOIL": "Bd29-3c", "DOMSOIL": "Bd" }, "geometry": { "type": "Point", "coordinates": [ 79.4555358, 29.3920381 ] } },
{ "type": "Feature", "properties": { "Botanical": "Allium humile", "Lower": null, "Family": "Alliaceae", "Country": null, "State": "Himachal Pradesh", "District": "Shimla", "Collection": "SHM\/07\/P\/02", "Date": "08.09.2006", "latitude": "31.104815", "longitude": "77.173403", "addrtype": "boundary", "addrlocat": "administrative", "rainfall": "", "FAOSOIL": "Be78-2c", "DOMSOIL": "Be" }, "geometry": { "type": "Point", "coordinates": [ 77.700625148440295, 31.24445 ] } },
{ "type": "Feature", "properties": { "Botanical": "Allium jacquemontii", "Lower": null, "Family": "Alliaceae", "Country": null, "State": "Himachal Pradesh", "District": "Kinnaur", "Collection": "SHM\/07\/P\/24", "Date": "08.09.2006", "latitude": "29.589241", "longitude": "79.646666", "addrtype": "boundary", "addrlocat": "administrative", "rainfall": "605.5285714", "FAOSOIL": "Be78-2c", "DOMSOIL": "Be" }, "geometry": { "type": "Point", "coordinates": [ 78.326386693257902, 31.5988765 ] } },
{ "type": "Feature", "properties": { "Botanical": "Allium jacquemontii", "Lower": null, "Family": "Alliaceae", "Country": null, "State": "Himachal Pradesh", "District": "Kinnaur", "Collection": "SHM\/07\/P\/25", "Date": "08.09.2006", "latitude": "29.380304", "longitude": "79.463566", "addrtype": "boundary", "addrlocat": "administrative", "rainfall": "605.5285714", "FAOSOIL": "Be78-2c", "DOMSOIL": "Be" }, "geometry": { "type": "Point", "coordinates": [ 78.326386693257902, 31.5988765 ] } },
{ "type": "Feature", "properties": { "Botanical": "Allium lineare", "Lower": null, "Family": "Alliaceae", "Country": null, "State": "Uttarakhand", "District": "Nainital", "Collection": null, "Date": "05.05.1998", "latitude": "24.782125", "longitude": "92.85771", "addrtype": "place", "addrlocat": "town", "rainfall": "", "FAOSOIL": "Bd29-3c", "DOMSOIL": "Bd" }, "geometry": { "type": "Point", "coordinates": [ 79.4555358, 29.3920381 ] } },
{ "type": "Feature", "properties": { "Botanical": "Allium odorum", "Lower": null, "Family": "Alliaceae", "Country": null, "State": "Arunachal Pradesh", "District": "Tawang", "Collection": "SHM\/08\/10", "Date": "26.08.2007", "latitude": "28.459497", "longitude": "77.026638", "addrtype": "place", "addrlocat": "town", "rainfall": "1582.933333", "FAOSOIL": "Ao80-2bc", "DOMSOIL": "Ao" }, "geometry": { "type": "Point", "coordinates": [ 91.8704278, 27.594917 ] } },
{ "type": "Feature", "properties": { "Botanical": "Allium przewalskianum", "Lower": null, "Family": "Alliaceae", "Country": null, "State": "Himachal Pradesh", "District": "Kinnaur", "Collection": "SHM\/08-124", "Date": "15.09.2007", "latitude": "27.17667", "longitude": "78.008075", "addrtype": "boundary", "addrlocat": "administrative", "rainfall": "605.5285714", "FAOSOIL": "Be78-2c", "DOMSOIL": "Be" }, "geometry": { "type": "Point", "coordinates": [ 78.326386693257902, 31.5988765 ] } },
{ "type": "Feature", "properties": { "Botanical": "Allium rubellum", "Lower": null, "Family": "Alliaceae", "Country": null, "State": "Himachal Pradesh", "District": "Lahaul & Spiti", "Collection": "BSI NC 45936", "Date": "13.06.1988", "latitude": "10.78673", "longitude": "76.654793", "addrtype": "boundary", "addrlocat": "administrative", "rainfall": null, "FAOSOIL": null, "DOMSOIL": null }, "geometry": { "type": "Point", "coordinates": [ 77.568440931035198, 32.5035645 ] } },
{ "type": "Feature", "properties": { "Botanical": "Allium sativum", "Lower": null, "Family": "Alliaceae", "Country": null, "State": "Jammu & Kashmir", "District": "Kargil", "Collection": "A-1465", "Date": "28.08.1987", "latitude": "22.008698", "longitude": "86.418731", "addrtype": "boundary", "addrlocat": "administrative", "rainfall": "", "FAOSOIL": "GL", "DOMSOIL": "GL" }, "geometry": { "type": "Point", "coordinates": [ 76.817977869157204, 33.7648606 ] } },
{ "type": "Feature", "properties": { "Botanical": "Allium schoenoprasum", "Lower": null, "Family": "Alliaceae", "Country": null, "State": "Himachal Pradesh", "District": "Shimla", "Collection": "SHM\/07\/P\/99", "Date": "09.09.2006", "latitude": "31.104815", "longitude": "77.173403", "addrtype": "boundary", "addrlocat": "administrative", "rainfall": "", "FAOSOIL": "Be78-2c", "DOMSOIL": "Be" }, "geometry": { "type": "Point", "coordinates": [ 77.700625148440295, 31.24445 ] } },
{ "type": "Feature", "properties": { "Botanical": "Allium scorodoprasum", "Lower": null, "Family": "Alliaceae", "Country": null, "State": "Uttarakhand", "District": "Nainital", "Collection": "AP", "Date": "Sept. 1999", "latitude": "31.104815", "longitude": "77.173403", "addrtype": "place", "addrlocat": "town", "rainfall": "", "FAOSOIL": "Bd29-3c", "DOMSOIL": "Bd" }, "geometry": { "type": "Point", "coordinates": [ 79.4555358, 29.3920381 ] } },
{ "type": "Feature", "properties": { "Botanical": "Allium stracheyi", "Lower": null, "Family": "Alliaceae", "Country": null, "State": "Uttarakhand", "District": "Chamoli", "Collection": "N-135", "Date": "Oct. 1986", "latitude": "16.990215", "longitude": "73.312023", "addrtype": "boundary", "addrlocat": "administrative", "rainfall": "", "FAOSOIL": "Bd29-3c", "DOMSOIL": "Bd" }, "geometry": { "type": "Point", "coordinates": [ 79.603134337402494, 30.51589035 ] } },
{ "type": "Feature", "properties": { "Botanical": "Allium tuberosum", "Lower": null, "Family": "Alliaceae", "Country": null, "State": "Uttarakhand", "District": "Nainital", "Collection": "AP", "Date": "Sept. 1999", "latitude": "12.971599", "longitude": "77.594563", "addrtype": "place", "addrlocat": "town", "rainfall": "", "FAOSOIL": "Bd29-3c", "DOMSOIL": "Bd" }, "geometry": { "type": "Point", "coordinates": [ 79.4555358, 29.3920381 ] } },
{ "type": "Feature", "properties": { "Botanical": "Achyranthes aspera", "Lower": null, "Family": "Amaranthaceae", "Country": null, "State": "Uttarakhand", "District": "Dehradun", "Collection": "RG", "Date": "Sept. 1999", "latitude": "12.843781", "longitude": "75.247906", "addrtype": "place", "addrlocat": "city", "rainfall": "", "FAOSOIL": "Bd29-3c", "DOMSOIL": "Bd" }, "geometry": { "type": "Point", "coordinates": [ 78.0436813, 30.3255646 ] } },
{ "type": "Feature", "properties": { "Botanical": "Achyranthes bidentata", "Lower": null, "Family": "Amaranthaceae", "Country": null, "State": "Himachal Pradesh", "District": "Shimla", "Collection": null, "Date": "23.05.2005", "latitude": "13.340881", "longitude": "74.742143", "addrtype": "boundary", "addrlocat": "administrative", "rainfall": "", "FAOSOIL": "Be78-2c", "DOMSOIL": "Be" }, "geometry": { "type": "Point", "coordinates": [ 77.700625148440295, 31.24445 ] } },
{ "type": "Feature", "properties": { "Botanical": "Aerva javanica", "Lower": null, "Family": "Amaranthaceae", "Country": null, "State": "Rajasthan", "District": "Sikar", "Collection": "RN\/06", "Date": "Oct. 2006", "latitude": "15.849695", "longitude": "74.497674", "addrtype": "boundary", "addrlocat": "administrative", "rainfall": "", "FAOSOIL": "Qc47-1\/2b", "DOMSOIL": "Qc" }, "geometry": { "type": "Point", "coordinates": [ 75.024075099694997, 27.66409325 ] } },
{ "type": "Feature", "properties": { "Botanical": "Aerva monsoniae", "Lower": null, "Family": "Amaranthaceae", "Country": null, "State": "Andhra Pradesh", "District": "Hyderabad", "Collection": null, "Date": null, "latitude": "29.380304", "longitude": "79.463566", "addrtype": "amenity", "addrlocat": "bank", "rainfall": "931.0571429", "FAOSOIL": "Lc76-2b", "DOMSOIL": "Lc" }, "geometry": { "type": "Point", "coordinates": [ 79.872446416838997, 16.89528065 ] } },
{ "type": "Feature", "properties": { "Botanical": "Aerva sanguinolenta", "Lower": null, "Family": "Amaranthaceae", "Country": null, "State": "Jharkhand", "District": "Sahibganj", "Collection": "1\/24", "Date": "09.03.2000", "latitude": "27.492191", "longitude": "95.346775", "addrtype": "boundary", "addrlocat": "administrative", "rainfall": "", "FAOSOIL": "Jc50-2a", "DOMSOIL": "Jc" }, "geometry": { "type": "Point", "coordinates": [ 87.685591610529997, 25.03329485 ] } },
{ "type": "Feature", "properties": { "Botanical": "Allmania nodiflora", "Lower": "var. aspera (Roth) Hook.f.", "Family": "Amaranthaceae", "Country": null, "State": "Karnataka", "District": "Ramanagara", "Collection": "KFP 1555", "Date": "19.07.1978", "latitude": "26.116047", "longitude": "83.231863", "addrtype": "place", "addrlocat": "town", "rainfall": "", "FAOSOIL": "Lc75-2b", "DOMSOIL": "Lc" }, "geometry": { "type": "Point", "coordinates": [ 74.4900863, 15.422047 ] } },
{ "type": "Feature", "properties": { "Botanical": "Alternanthera philoxeroides", "Lower": null, "Family": "Amaranthaceae", "Country": null, "State": "Assam", "District": "Cachar", "Collection": "GD-107", "Date": "11.03.2000", "latitude": "15.139393", "longitude": "76.921443", "addrtype": "boundary", "addrlocat": "administrative", "rainfall": "2876.557143", "FAOSOIL": "Ao76-2\/3c", "DOMSOIL": "Ao" }, "geometry": { "type": "Point", "coordinates": [ 92.881511187499996, 24.7569908 ] } },
{ "type": "Feature", "properties": { "Botanical": "Alternanthera pungens", "Lower": null, "Family": "Amaranthaceae", "Country": null, "State": "Haryana", "District": "Gurgaon", "Collection": "ERN", "Date": "12.10. 2005", "latitude": "30.562846", "longitude": "77.470197", "addrtype": "place", "addrlocat": "city", "rainfall": "565.92", "FAOSOIL": "Yh26-2\/3a", "DOMSOIL": "Yh" }, "geometry": { "type": "Point", "coordinates": [ 77.0299194, 28.4646148 ] } },
{ "type": "Feature", "properties": { "Botanical": "Alternanthera tenella", "Lower": null, "Family": "Amaranthaceae", "Country": null, "State": "Maharashtra", "District": "Ratnagiri", "Collection": "BBJ-279", "Date": "01.05.2001", "latitude": "12.29581", "longitude": "76.639381", "addrtype": "boundary", "addrlocat": "administrative", "rainfall": "", "FAOSOIL": "Nd49-2bc", "DOMSOIL": "Nd" }, "geometry": { "type": "Point", "coordinates": [ 73.276178369930307, 17.27448005 ] } },
{ "type": "Feature", "properties": { "Botanical": "Amaranthus blitum", "Lower": null, "Family": "Amaranthaceae", "Country": null, "State": "Himachal Pradesh", "District": "Kangra", "Collection": "SHM\/07\/P\/93", "Date": "06.09.2006", "latitude": "17.385044", "longitude": "78.486671", "addrtype": "boundary", "addrlocat": "administrative", "rainfall": "1545.385714", "FAOSOIL": "I-B-U", "DOMSOIL": "I" }, "geometry": { "type": "Point", "coordinates": [ 76.253838837940506, 32.07960645 ] } },
{ "type": "Feature", "properties": { "Botanical": "Amaranthus dubius", "Lower": null, "Family": "Amaranthaceae", "Country": null, "State": "Karnataka", "District": "Shimoga", "Collection": "JSR-04-109", "Date": "15.10.2004", "latitude": "14.793707", "longitude": "74.686882", "addrtype": "place", "addrlocat": "city", "rainfall": "2146.7", "FAOSOIL": "Ap21-2b", "DOMSOIL": "Ap" }, "geometry": { "type": "Point", "coordinates": [ 75.569737, 13.9311723 ] } },
{ "type": "Feature", "properties": { "Botanical": "Amaranthus dubius", "Lower": null, "Family": "Amaranthaceae", "Country": null, "State": "Himachal Pradesh", "District": "Shimla", "Collection": "SHM\/07\/P\/86", "Date": "06.08.2006", "latitude": "26.316082", "longitude": "91.598396", "addrtype": "boundary", "addrlocat": "administrative", "rainfall": "", "FAOSOIL": "Be78-2c", "DOMSOIL": "Be" }, "geometry": { "type": "Point", "coordinates": [ 77.700625148440295, 31.24445 ] } },
{ "type": "Feature", "properties": { "Botanical": "Amaranthus graecizans", "Lower": null, "Family": "Amaranthaceae", "Country": null, "State": "Kerala", "District": "Thrissur", "Collection": "JSR-04-141", "Date": "17.10.2004", "latitude": "7.083333", "longitude": "93.8", "addrtype": "boundary", "addrlocat": "administrative", "rainfall": "", "FAOSOIL": "Nd48-2\/3b", "DOMSOIL": "Nd" }, "geometry": { "type": "Point", "coordinates": [ 76.174203054424495, 10.4009979 ] } },
{ "type": "Feature", "properties": { "Botanical": "Amaranthus hybridus", "Lower": null, "Family": "Amaranthaceae", "Country": null, "State": "Kerala", "District": "Thrissur", "Collection": "JSR-04-80", "Date": "14.10.2004", "latitude": "12.971599", "longitude": "77.594563", "addrtype": "boundary", "addrlocat": "administrative", "rainfall": "", "FAOSOIL": "Nd48-2\/3b", "DOMSOIL": "Nd" }, "geometry": { "type": "Point", "coordinates": [ 76.174203054424495, 10.4009979 ] } },
{ "type": "Feature", "properties": { "Botanical": "Amaranthus hypochondriacus", "Lower": null, "Family": "Amaranthaceae", "Country": null, "State": "Himachal Pradesh", "District": "Lahaul & Spiti", "Collection": null, "Date": "Aug. 1984", "latitude": "17.686816", "longitude": "83.218482", "addrtype": "boundary", "addrlocat": "administrative", "rainfall": null, "FAOSOIL": null, "DOMSOIL": null }, "geometry": { "type": "Point", "coordinates": [ 77.568440931035198, 32.5035645 ] } },
{ "type": "Feature", "properties": { "Botanical": "Amaranthus tricolor", "Lower": null, "Family": "Amaranthaceae", "Country": null, "State": "Karnataka", "District": "Tumkur", "Collection": "JSR-04-57", "Date": "13.10.2004", "latitude": "30.404105", "longitude": "79.331769", "addrtype": "place", "addrlocat": "county", "rainfall": "845.2142857", "FAOSOIL": "Lc75-2b", "DOMSOIL": "Lc" }, "geometry": { "type": "Point", "coordinates": [ 77.0002445, 13.4999406 ] } },
{ "type": "Feature", "properties": { "Botanical": "Amaranthus tricolor", "Lower": null, "Family": "Amaranthaceae", "Country": null, "State": "Himachal Pradesh", "District": "Shimla", "Collection": "SHM\/07\/P\/85", "Date": "07.07.2006", "latitude": "31.104815", "longitude": "77.173403", "addrtype": "boundary", "addrlocat": "administrative", "rainfall": "", "FAOSOIL": "Be78-2c", "DOMSOIL": "Be" }, "geometry": { "type": "Point", "coordinates": [ 77.700625148440295, 31.24445 ] } },
{ "type": "Feature", "properties": { "Botanical": "Amaranthus viridis", "Lower": null, "Family": "Amaranthaceae", "Country": null, "State": "Uttarakhand", "District": "Almora", "Collection": "AP\/2006", "Date": "Oct. 2006", "latitude": "32.246137", "longitude": "78.034916", "addrtype": "boundary", "addrlocat": "administrative", "rainfall": "1210.925", "FAOSOIL": "Bd29-3c", "DOMSOIL": "Bd" }, "geometry": { "type": "Point", "coordinates": [ 79.416445770426904, 29.70950165 ] } },
{ "type": "Feature", "properties": { "Botanical": "Bosia amherstiana", "Lower": null, "Family": "Amaranthaceae", "Country": null, "State": "Uttarakhand", "District": "Nainital", "Collection": "KSP\/KCP-209", "Date": "July 1987", "latitude": "32.246137", "longitude": "78.034916", "addrtype": "place", "addrlocat": "town", "rainfall": "", "FAOSOIL": "Bd29-3c", "DOMSOIL": "Bd" }, "geometry": { "type": "Point", "coordinates": [ 79.4555358, 29.3920381 ] } },
{ "type": "Feature", "properties": { "Botanical": "Cyathula prostrata", "Lower": null, "Family": "Amaranthaceae", "Country": null, "State": "Assam", "District": "Cachar", "Collection": "GD-114A", "Date": "06.02.2000", "latitude": "34.083671", "longitude": "74.797282", "addrtype": "boundary", "addrlocat": "administrative", "rainfall": "2876.557143", "FAOSOIL": "Ao76-2\/3c", "DOMSOIL": "Ao" }, "geometry": { "type": "Point", "coordinates": [ 92.881511187499996, 24.7569908 ] } },
{ "type": "Feature", "properties": { "Botanical": "Digera arvensis", "Lower": null, "Family": "Amaranthaceae", "Country": null, "State": "Haryana", "District": "Gurgaon", "Collection": "SSM\/Expl.\/2004", "Date": "July 2004", "latitude": "30.726831", "longitude": "78.435404", "addrtype": "place", "addrlocat": "city", "rainfall": "565.92", "FAOSOIL": "Yh26-2\/3a", "DOMSOIL": "Yh" }, "geometry": { "type": "Point", "coordinates": [ 77.0299194, 28.4646148 ] } },
{ "type": "Feature", "properties": { "Botanical": "Digera arvensis", "Lower": null, "Family": "Amaranthaceae", "Country": null, "State": "Maharashtra", "District": "Akola", "Collection": null, "Date": "22.01.1965", "latitude": "29.380304", "longitude": "79.463566", "addrtype": "boundary", "addrlocat": "administrative", "rainfall": "", "FAOSOIL": "Vc43-3ab", "DOMSOIL": "Vc" }, "geometry": { "type": "Point", "coordinates": [ 77.254127529807505, 20.76697255 ] } },
{ "type": "Feature", "properties": { "Botanical": "Digera muricata", "Lower": null, "Family": "Amaranthaceae", "Country": null, "State": "Uttar Pradesh", "District": "Agra", "Collection": "AKI-3", "Date": null, "latitude": "22.61681", "longitude": "88.402895", "addrtype": "boundary", "addrlocat": "administrative", "rainfall": "409.9285714", "FAOSOIL": "Lo5-2a", "DOMSOIL": "Lo" }, "geometry": { "type": "Point", "coordinates": [ 78.0925527, 27.02317485 ] } },
{ "type": "Feature", "properties": { "Botanical": "Pupalia lappacea", "Lower": null, "Family": "Amaranthaceae", "Country": null, "State": "Kerala", "District": "Palakkad", "Collection": "ERN", "Date": "Dec. 1999", "latitude": "31.104815", "longitude": "77.173403", "addrtype": "place", "addrlocat": "town", "rainfall": "", "FAOSOIL": "Ap21-2b", "DOMSOIL": "Ap" }, "geometry": { "type": "Point", "coordinates": [ 76.6438011, 10.7759233 ] } },
{ "type": "Feature", "properties": { "Botanical": "Curculigo orchioides", "Lower": null, "Family": "Amaryllidaceae", "Country": null, "State": "Orissa", "District": "Mayurbhanj", "Collection": "RM-III-30", "Date": "Dec. 1999", "latitude": "34.083671", "longitude": "74.797282", "addrtype": "boundary", "addrlocat": "administrative", "rainfall": "1647.314286", "FAOSOIL": "Lf96-2ab", "DOMSOIL": "Lf" }, "geometry": { "type": "Point", "coordinates": [ 86.394367864737703, 21.9239262 ] } },
{ "type": "Feature", "properties": { "Botanical": "Zephyranthes grandiflora", "Lower": null, "Family": "Amaryllidaceae", "Country": null, "State": "Himachal Pradesh", "District": "Shimla", "Collection": "SHM\/07\/P\/76", "Date": "04.04.2006", "latitude": "12.29581", "longitude": "76.639381", "addrtype": "boundary", "addrlocat": "administrative", "rainfall": "", "FAOSOIL": "Be78-2c", "DOMSOIL": "Be" }, "geometry": { "type": "Point", "coordinates": [ 77.700625148440295, 31.24445 ] } },
{ "type": "Feature", "properties": { "Botanical": "Zephyranthes grandiflora", "Lower": null, "Family": "Amaryllidaceae", "Country": null, "State": "Himachal Pradesh", "District": "Shimla", "Collection": "SHM\/08-111", "Date": "14.06.2006", "latitude": "29.380304", "longitude": "79.463566", "addrtype": "boundary", "addrlocat": "administrative", "rainfall": "", "FAOSOIL": "Be78-2c", "DOMSOIL": "Be" }, "geometry": { "type": "Point", "coordinates": [ 77.700625148440295, 31.24445 ] } },
{ "type": "Feature", "properties": { "Botanical": "Anacardium occidentale", "Lower": null, "Family": "Anacardiaceae", "Country": null, "State": "Kerala", "District": "Kottayam", "Collection": "RN-2006", "Date": "20.12.2006", "latitude": "19.107132", "longitude": "81.953481", "addrtype": "boundary", "addrlocat": "administrative", "rainfall": "", "FAOSOIL": "Nd48-2\/3b", "DOMSOIL": "Nd" }, "geometry": { "type": "Point", "coordinates": [ 76.631744134368702, 9.62308445 ] } },
{ "type": "Feature", "properties": { "Botanical": "Anacardium occidentale", "Lower": null, "Family": "Anacardiaceae", "Country": null, "State": "Maharashtra", "District": "Ratnagiri", "Collection": "BBJ-221", "Date": "21.01.2001", "latitude": "12.337494", "longitude": "75.806908", "addrtype": "boundary", "addrlocat": "administrative", "rainfall": "", "FAOSOIL": "Nd49-2bc", "DOMSOIL": "Nd" }, "geometry": { "type": "Point", "coordinates": [ 73.276178369930307, 17.27448005 ] } },
{ "type": "Feature", "properties": { "Botanical": "Buchanania axillaris", "Lower": null, "Family": "Anacardiaceae", "Country": null, "State": "Karnataka", "District": "Bangalore", "Collection": "KFP 7488", "Date": "30.04.1979", "latitude": "26.452288", "longitude": "92.027319", "addrtype": "place", "addrlocat": "city", "rainfall": "", "FAOSOIL": "Lc75-2b", "DOMSOIL": "Lc" }, "geometry": { "type": "Point", "coordinates": [ 77.5912997, 12.9791198 ] } },
{ "type": "Feature", "properties": { "Botanical": "Buchanania axillaris", "Lower": null, "Family": "Anacardiaceae", "Country": null, "State": "Karnataka", "District": "Mysore", "Collection": "KFP 2249", "Date": "21.08.1978", "latitude": "24.833271", "longitude": "92.778905", "addrtype": "place", "addrlocat": "city", "rainfall": "831.8571429", "FAOSOIL": "Lc75-2b", "DOMSOIL": "Lc" }, "geometry": { "type": "Point", "coordinates": [ 76.6553609, 12.3051828 ] } },
{ "type": "Feature", "properties": { "Botanical": "Holigarna ferruginea", "Lower": null, "Family": "Anacardiaceae", "Country": null, "State": "Karnataka", "District": "Dakshina Kannada", "Collection": "KFP 1912", "Date": "22.07.1978", "latitude": "16.990215", "longitude": "73.312023", "addrtype": "boundary", "addrlocat": "administrative", "rainfall": "", "FAOSOIL": "Ap21-2b", "DOMSOIL": "Ap" }, "geometry": { "type": "Point", "coordinates": [ 75.100802865079402, 12.8114089 ] } },
{ "type": "Feature", "properties": { "Botanical": "Holigarna ferruginea", "Lower": null, "Family": "Anacardiaceae", "Country": null, "State": "Karnataka", "District": "Udupi", "Collection": "KFP 5128", "Date": "27.12.1978", "latitude": "31.104815", "longitude": "77.173403", "addrtype": "place", "addrlocat": "city", "rainfall": "4481.871429", "FAOSOIL": "Ap21-2b", "DOMSOIL": "Ap" }, "geometry": { "type": "Point", "coordinates": [ 74.7473232, 13.3419169 ] } },
{ "type": "Feature", "properties": { "Botanical": "Holigarna grahamii", "Lower": null, "Family": "Anacardiaceae", "Country": null, "State": "Karnataka", "District": "Hassan", "Collection": "KFP 5472", "Date": "26.12.1978", "latitude": "30.316495", "longitude": "78.032192", "addrtype": "place", "addrlocat": "town", "rainfall": "1184.371429", "FAOSOIL": "Ap21-2b", "DOMSOIL": "Ap" }, "geometry": { "type": "Point", "coordinates": [ 76.0992703, 13.0070817 ] } },
{ "type": "Feature", "properties": { "Botanical": "Lannea coromandelica", "Lower": null, "Family": "Anacardiaceae", "Country": null, "State": "Karnataka", "District": "Belgaum", "Collection": "KFP 7862", "Date": "23.05.1979", "latitude": "13.315258", "longitude": "75.775402", "addrtype": "place", "addrlocat": "county", "rainfall": "", "FAOSOIL": "Vc43-3ab", "DOMSOIL": "Vc" }, "geometry": { "type": "Point", "coordinates": [ 74.75, 16.333333 ] } },
{ "type": "Feature", "properties": { "Botanical": "Pistacia atlantica", "Lower": null, "Family": "Anacardiaceae", "Country": null, "State": "Himachal Pradesh", "District": "Shimla", "Collection": "SHM\/07\/P\/55", "Date": "27.04.2006", "latitude": "30.404105", "longitude": "79.331769", "addrtype": "boundary", "addrlocat": "administrative", "rainfall": "", "FAOSOIL": "Be78-2c", "DOMSOIL": "Be" }, "geometry": { "type": "Point", "coordinates": [ 77.700625148440295, 31.24445 ] } },
{ "type": "Feature", "properties": { "Botanical": "Pistacia atlantica", "Lower": null, "Family": "Anacardiaceae", "Country": null, "State": "Himachal Pradesh", "District": "Shimla", "Collection": "SHM\/07\/P\/56", "Date": "06.04.2006", "latitude": "34.553852", "longitude": "76.134894", "addrtype": "boundary", "addrlocat": "administrative", "rainfall": "", "FAOSOIL": "Be78-2c", "DOMSOIL": "Be" }, "geometry": { "type": "Point", "coordinates": [ 77.700625148440295, 31.24445 ] } },
{ "type": "Feature", "properties": { "Botanical": "Pistacia integerrima", "Lower": null, "Family": "Anacardiaceae", "Country": null, "State": "Uttarakhand", "District": "Nainital", "Collection": "MGD-65\/03", "Date": "26.07.2003", "latitude": "30.404105", "longitude": "79.331769", "addrtype": "place", "addrlocat": "town", "rainfall": "", "FAOSOIL": "Bd29-3c", "DOMSOIL": "Bd" }, "geometry": { "type": "Point", "coordinates": [ 79.4555358, 29.3920381 ] } },
{ "type": "Feature", "properties": { "Botanical": "Rhus chinensis", "Lower": null, "Family": "Anacardiaceae", "Country": null, "State": "Assam", "District": "Tinsukia", "Collection": "SMBRH-64", "Date": "01.03.2003", "latitude": "29.380304", "longitude": "79.463566", "addrtype": "place", "addrlocat": "town", "rainfall": "2346.633333", "FAOSOIL": "Af48-2ab", "DOMSOIL": "Af" }, "geometry": { "type": "Point", "coordinates": [ 95.3601855, 27.4879722 ] } },
{ "type": "Feature", "properties": { "Botanical": "Rhus javanica", "Lower": null, "Family": "Anacardiaceae", "Country": null, "State": "Uttarakhand", "District": "Garhwal", "Collection": null, "Date": "26.06.1995", "latitude": "31.104815", "longitude": "77.173403", "addrtype": "place", "addrlocat": "county", "rainfall": "", "FAOSOIL": "Bd29-3c", "DOMSOIL": "Bd" }, "geometry": { "type": "Point", "coordinates": [ 79.333333, 30.25 ] } },
{ "type": "Feature", "properties": { "Botanical": "Rhus javanica", "Lower": null, "Family": "Anacardiaceae", "Country": null, "State": "Uttarakhand", "District": "Nainital", "Collection": "KSN\/KCP-9", "Date": "Oct. 1986", "latitude": "31.708166", "longitude": "76.931367", "addrtype": "place", "addrlocat": "town", "rainfall": "", "FAOSOIL": "Bd29-3c", "DOMSOIL": "Bd" }, "geometry": { "type": "Point", "coordinates": [ 79.4555358, 29.3920381 ] } },
{ "type": "Feature", "properties": { "Botanical": "Rhus mysorensis", "Lower": null, "Family": "Anacardiaceae", "Country": null, "State": "Karnataka", "District": "Bellary", "Collection": "KFP 4235", "Date": "13.11.1978", "latitude": "18.052936", "longitude": "78.261853", "addrtype": "place", "addrlocat": "county", "rainfall": "677.4428571", "FAOSOIL": "Lc5-2b", "DOMSOIL": "Lc" }, "geometry": { "type": "Point", "coordinates": [ 76.8323648, 15.2485413 ] } },
{ "type": "Feature", "properties": { "Botanical": "Rhus parviflora", "Lower": null, "Family": "Anacardiaceae", "Country": null, "State": "Himachal Pradesh", "District": "Sirmaur", "Collection": null, "Date": null, "latitude": "18.296975", "longitude": "83.896781", "addrtype": "boundary", "addrlocat": "administrative", "rainfall": "", "FAOSOIL": "Bd29-3c", "DOMSOIL": "Bd" }, "geometry": { "type": "Point", "coordinates": [ 77.438846795142396, 30.6998701 ] } },
{ "type": "Feature", "properties": { "Botanical": "Semecarpus anacardium", "Lower": null, "Family": "Anacardiaceae", "Country": null, "State": "Maharashtra", "District": "Ratnagiri", "Collection": "BBJ-2", "Date": "10.02.2000", "latitude": "25.806656", "longitude": "73.331043", "addrtype": "boundary", "addrlocat": "administrative", "rainfall": "", "FAOSOIL": "Nd49-2bc", "DOMSOIL": "Nd" }, "geometry": { "type": "Point", "coordinates": [ 73.276178369930307, 17.27448005 ] } },
{ "type": "Feature", "properties": { "Botanical": "Semecarpus anacardium", "Lower": null, "Family": "Anacardiaceae", "Country": null, "State": "Karnataka", "District": "Mysore", "Collection": "KFP 7567", "Date": "15.05.1979", "latitude": "14.793707", "longitude": "74.686882", "addrtype": "place", "addrlocat": "city", "rainfall": "831.8571429", "FAOSOIL": "Lc75-2b", "DOMSOIL": "Lc" }, "geometry": { "type": "Point", "coordinates": [ 76.6553609, 12.3051828 ] } },
{ "type": "Feature", "properties": { "Botanical": "Solenocarpus indica", "Lower": null, "Family": "Anacardiaceae", "Country": null, "State": "Karnataka", "District": "Uttara Kannada", "Collection": "KFP 13056", "Date": "23.06.1981", "latitude": "14.793707", "longitude": "74.686882", "addrtype": "boundary", "addrlocat": "administrative", "rainfall": "", "FAOSOIL": "Ap21-2b", "DOMSOIL": "Ap" }, "geometry": { "type": "Point", "coordinates": [ 74.472916304597902, 14.6726379 ] } },
{ "type": "Feature", "properties": { "Botanical": "Spondias acuminata", "Lower": null, "Family": "Anacardiaceae", "Country": null, "State": "Karnataka", "District": "Kodagu", "Collection": "KFP 3148", "Date": "10.10.1978", "latitude": "14.793707", "longitude": "74.686882", "addrtype": "boundary", "addrlocat": "administrative", "rainfall": "2817.842857", "FAOSOIL": "Ap21-2b", "DOMSOIL": "Ap" }, "geometry": { "type": "Point", "coordinates": [ 75.667723595085207, 12.38117345 ] } },
{ "type": "Feature", "properties": { "Botanical": "Annona reticulata", "Lower": null, "Family": "Annonaceae", "Country": null, "State": "Andhra Pradesh", "District": "Hyderabad", "Collection": "RG-2001", "Date": "11.09.2001", "latitude": "14.793707", "longitude": "74.686882", "addrtype": "amenity", "addrlocat": "bank", "rainfall": "931.0571429", "FAOSOIL": "Lc76-2b", "DOMSOIL": "Lc" }, "geometry": { "type": "Point", "coordinates": [ 79.872446416838997, 16.89528065 ] } },
{ "type": "Feature", "properties": { "Botanical": "Annona squamosa", "Lower": null, "Family": "Annonaceae", "Country": null, "State": "Karnataka", "District": "Chitradurga", "Collection": "KFP 7276", "Date": "21.04.1979", "latitude": "27.481111", "longitude": "94.557285", "addrtype": "place", "addrlocat": "town", "rainfall": "727.5", "FAOSOIL": "Lc75-2b", "DOMSOIL": "Lc" }, "geometry": { "type": "Point", "coordinates": [ 76.4005122, 14.2266443 ] } },
{ "type": "Feature", "properties": { "Botanical": "Artabotrys zeylanicus", "Lower": null, "Family": "Annonaceae", "Country": null, "State": "Karnataka", "District": "Chikmagalur", "Collection": "KFP 5410", "Date": "15.12.1978", "latitude": "17.389138", "longitude": "77.836728", "addrtype": "place", "addrlocat": "county", "rainfall": "2264.3", "FAOSOIL": "Ap21-2b", "DOMSOIL": "Ap" }, "geometry": { "type": "Point", "coordinates": [ 75.5, 13.5 ] } },
{ "type": "Feature", "properties": { "Botanical": "Desmos lawii", "Lower": null, "Family": "Annonaceae", "Country": null, "State": "Karnataka", "District": "Shimoga", "Collection": "KFP 7399", "Date": "23.04.1979", "latitude": "20.123133", "longitude": "85.103843", "addrtype": "place", "addrlocat": "city", "rainfall": "2146.7", "FAOSOIL": "Ap21-2b", "DOMSOIL": "Ap" }, "geometry": { "type": "Point", "coordinates": [ 75.569737, 13.9311723 ] } },
{ "type": "Feature", "properties": { "Botanical": "Goniothalamus cardiopetalus", "Lower": null, "Family": "Annonaceae", "Country": null, "State": "Karnataka", "District": "Uttara Kannada", "Collection": "KFP 3033", "Date": "28.09.1978", "latitude": "17.389138", "longitude": "77.836728", "addrtype": "boundary", "addrlocat": "administrative", "rainfall": "", "FAOSOIL": "Ap21-2b", "DOMSOIL": "Ap" }, "geometry": { "type": "Point", "coordinates": [ 74.472916304597902, 14.6726379 ] } },
{ "type": "Feature", "properties": { "Botanical": "Goniothalamus sesquipedalis", "Lower": null, "Family": "Annonaceae", "Country": null, "State": "Assam", "District": "Kamrup", "Collection": "SMBRH-149", "Date": "27.03.2003", "latitude": "12.5", "longitude": "92.75", "addrtype": "boundary", "addrlocat": "administrative", "rainfall": "1621.233333", "FAOSOIL": "Ao79-a", "DOMSOIL": "Ao" }, "geometry": { "type": "Point", "coordinates": [ 91.613023124250503, 26.2609413 ] } },
{ "type": "Feature", "properties": { "Botanical": "Miliusa tomentosa", "Lower": null, "Family": "Annonaceae", "Country": null, "State": "Maharashtra", "District": "Akola", "Collection": null, "Date": "18.01.1965", "latitude": "31.104815", "longitude": "77.173403", "addrtype": "boundary", "addrlocat": "administrative", "rainfall": "", "FAOSOIL": "Vc43-3ab", "DOMSOIL": "Vc" }, "geometry": { "type": "Point", "coordinates": [ 77.254127529807505, 20.76697255 ] } },
{ "type": "Feature", "properties": { "Botanical": "Miliusa velutina", "Lower": null, "Family": "Annonaceae", "Country": null, "State": "Karnataka", "District": "Ramanagar", "Collection": "KFP 8142", "Date": "17.06.1979", "latitude": "31.104815", "longitude": "77.173403", "addrtype": "highway", "addrlocat": "primary", "rainfall": null, "FAOSOIL": null, "DOMSOIL": null }, "geometry": { "type": "Point", "coordinates": [ 77.3418018, 12.649356 ] } },
{ "type": "Feature", "properties": { "Botanical": "Miliusa wightiana", "Lower": null, "Family": "Annonaceae", "Country": null, "State": "Karnataka", "District": "Dakshina Kannada", "Collection": "KFP 7609", "Date": "04.05.1979", "latitude": "26.65285", "longitude": "92.792559", "addrtype": "boundary", "addrlocat": "administrative", "rainfall": "", "FAOSOIL": "Ap21-2b", "DOMSOIL": "Ap" }, "geometry": { "type": "Point", "coordinates": [ 75.100802865079402, 12.8114089 ] } }
]
}
